,location.name,location.region,location.country,location.lat,location.lon,current.last_updated,current.temp_c,current.temp_f,current.is_day,current.wind_mph,current.wind_kph,current.wind_degree,current.wind_dir,current.pressure_mb,current.pressure_in,current.precip_mm,current.precip_in,current.humidity,current.cloud,current.feelslike_c,current.feelslike_f,current.windchill_c,current.windchill_f,current.heatindex_c,current.heatindex_f,current.dewpoint_c,current.dewpoint_f,current.vis_km,current.vis_miles,current.uv,current.gust_mph,current.gust_kph,current.will_it_rain,current.chance_of_rain,current.will_it_snow,current.chance_of_snow,current.air_quality.co,current.air_quality.no2,current.air_quality.o3,current.air_quality.so2,current.air_quality.pm2_5,current.air_quality.pm10,current.air_quality.us-epa-index,current.air_quality.gb-defra-index
0,Les Escaldes,Escaldes-Engordany,Andorra,42.5,1.533,2026-07-13 09:00,21.6,71.0,1,4.3,6.8,151,SSE,1018.0,30.06,0.0,0.0,37,19,16.3,61.3,21.6,71.0,23.7,74.7,6.3,43.3,10.0,6.0,1.5,4.9,7.9,0,2,0,0,87.0,0.5,73.0,0.4,10.3,30.1,1,1
1,Andorra La Vella,Andorra la Vella,Andorra,42.5,1.517,2026-07-13 09:00,21.6,71.0,1,4.3,6.8,151,SSE,1018.0,30.06,0.0,0.0,37,19,16.3,61.3,21.6,71.0,23.7,74.7,6.3,43.3,10.0,6.0,1.5,4.9,7.9,0,2,0,0,87.0,0.5,73.0,0.4,10.3,30.1,1,1
2,Warisan,Dubai,United Arab Emirates,25.161,55.428,2026-07-13 10:45,36.3,97.3,1,11.4,18.4,226,SW,998.0,29.47,0.0,0.0,50,0,45.0,113.0,35.6,96.1,43.2,109.7,24.0,75.3,10.0,6.0,6.8,13.1,21.1,0,2,0,0,440.0,31.3,127.0,18.5,79.2,184.4,4,10
3,Umm As Suqaym,Dubai,United Arab Emirates,25.163,55.207,2026-07-13 10:45,36.3,97.3,1,11.4,18.4,226,SW,998.0,29.47,0.0,0.0,50,0,45.0,113.0,35.6,96.1,43.2,109.7,24.0,75.3,10.0,6.0,6.8,13.1,21.1,0,2,0,0,440.0,31.3,127.0,18.5,79.2,184.4,4,10
4,Umm Al Qawain,Umm Al Quwain,United Arab Emirates,25.565,55.553,2026-07-13 11:00,37.4,99.3,1,12.3,19.8,236,SW,998.0,29.47,0.0,0.0,40,0,42.0,107.5,38.8,101.8,44.9,112.8,21.8,71.2,10.0,6.0,9.2,14.2,22.8,0,1,0,0,384.0,17.7,154.0,14.1,90.1,268.2,4,10
5,Tarif Kalba,Sharjah,United Arab Emirates,25.069,56.334,2026-07-13 10:45,37.5,99.6,1,2.2,3.6,306,NW,999.0,29.5,0.0,0.0,29,0,32.8,91.0,37.5,99.6,39.2,102.6,16.7,62.1,5.0,3.0,6.9,3.2,5.1,0,0,0,0,148.0,8.4,151.0,11.7,85.7,238.4,4,10
6,Ar Rashidiyah,Dubai,United Arab Emirates,25.215,55.39,2026-07-13 11:00,36.0,96.8,1,11.9,19.1,245,WSW,998.0,29.47,0.0,0.0,50,0,44.4,111.9,35.9,96.6,44.1,111.3,24.5,76.0,10.0,6.0,9.2,13.7,22.1,0,2,0,0,303.0,30.0,143.0,18.8,85.2,200.7,4,10
7,Ras Al Khaimah,Ras Al Khaimah,United Arab Emirates,25.791,55.943,2026-07-13 10:45,38.2,100.8,1,8.9,14.4,237,WSW,999.0,29.49,0.0,0.0,33,0,43.0,109.4,37.5,99.6,41.7,107.0,20.0,68.1,10.0,6.0,6.8,10.3,16.6,0,1,0,0,169.0,15.5,143.0,14.9,83.8,228.2,4,10
8,Bid' Zayed,Abu Dhabi,United Arab Emirates,23.617,53.75,2026-07-13 11:00,42.2,107.9,1,13.2,21.2,303,WNW,998.0,29.48,0.0,0.0,16,0,34.0,93.2,42.2,107.9,43.2,109.8,11.2,52.2,4.4,2.0,8.8,15.2,24.4,0,0,0,0,150.0,3.1,184.0,21.5,89.4,284.1,4,10
9,Fakkan,Sharjah,United Arab Emirates,25.339,56.356,2026-07-13 11:00,36.1,97.1,1,2.9,4.7,24,NNE,999.0,29.49,0.0,0.0,44,0,41.1,106.0,36.2,97.1,41.8,107.3,22.1,71.9,4.9,3.0,9.1,4.3,6.9,0,1,0,0,173.0,6.2,166.0,9.3,88.7,246.8,4,10
10,Hayat,Sharjah,United Arab Emirates,25.067,56.35,2026-07-13 10:45,37.5,99.6,1,2.2,3.6,306,NW,999.0,29.5,0.0,0.0,29,0,32.8,91.0,37.5,99.6,39.2,102.6,16.7,62.1,5.0,3.0,6.9,3.2,5.1,0,0,0,0,148.0,8.4,151.0,11.7,85.7,238.4,4,10
11,Jimeirah,Dubai,United Arab Emirates,25.21,55.248,2026-07-13 10:45,36.3,97.3,1,11.2,18.0,231,SW,998.0,29.47,0.0,0.0,50,0,44.4,111.9,33.6,92.4,42.2,108.0,25.6,78.2,10.0,6.0,6.7,14.0,22.6,0,4,0,0,337.0,31.3,127.0,18.5,79.2,184.4,4,10
12,Nadd Ash Shiba,Dubai,United Arab Emirates,25.146,55.334,2026-07-13 10:45,36.3,97.3,1,11.4,18.4,226,SW,998.0,29.47,0.0,0.0,50,0,45.0,113.0,35.6,96.1,43.2,109.7,24.0,75.3,10.0,6.0,6.8,13.1,21.1,0,2,0,0,440.0,31.3,127.0,18.5,79.2,184.4,4,10
13,Wasit,Fujairah,United Arab Emirates,25.598,56.257,2026-07-13 10:45,37.5,99.6,1,2.2,3.6,306,NW,999.0,29.5,0.0,0.0,29,0,32.8,91.0,37.5,99.6,39.2,102.6,16.7,62.1,5.0,3.0,6.9,3.2,5.1,0,0,0,0,148.0,8.4,151.0,11.7,85.7,238.4,4,10
14,Daba Al-Hisn,Sharjah,United Arab Emirates,25.617,56.267,2026-07-13 10:45,37.5,99.6,1,2.2,3.6,306,NW,999.0,29.5,0.0,0.0,29,0,32.8,91.0,37.5,99.6,39.2,102.6,16.7,62.1,5.0,3.0,6.9,3.2,5.1,0,0,0,0,148.0,8.4,151.0,11.7,85.7,238.4,4,10
15,Daira,Dubai,United Arab Emirates,25.272,55.311,2026-07-13 11:00,36.0,96.8,1,11.9,19.1,245,WSW,998.0,29.47,0.0,0.0,50,0,44.4,111.9,35.9,96.6,44.1,111.3,24.5,76.0,10.0,6.0,9.2,13.7,22.1,0,2,0,0,303.0,30.0,143.0,18.8,85.2,200.7,4,10
16,Hizayib Az Zanah,Sharjah,United Arab Emirates,25.316,55.412,2026-07-13 10:45,37.4,99.3,1,11.6,18.7,224,SW,998.0,29.47,0.0,0.0,40,0,49.8,121.7,35.0,95.0,43.0,109.5,24.6,76.3,10.0,6.0,6.7,13.4,21.5,0,2,0,0,419.0,18.6,137.0,14.3,85.4,258.0,4,10
17,Ar Ruways,Abu Dhabi,United Arab Emirates,24.11,52.731,2026-07-13 11:00,38.8,101.8,1,13.2,21.2,278,W,999.0,29.49,0.0,0.0,32,32,30.7,87.3,38.8,101.8,42.3,108.2,18.9,66.1,4.1,2.0,8.5,19.2,30.9,0,2,0,0,149.0,3.8,176.0,23.1,92.7,311.1,4,10
18,Al Hagarein,Dubai,United Arab Emirates,24.799,56.116,2026-07-13 10:45,41.2,106.2,1,5.6,9.0,226,SW,999.0,29.51,0.0,0.0,13,0,35.5,95.9,41.2,106.2,41.8,107.2,7.7,45.8,2.5,1.0,7.1,6.4,10.4,0,0,0,0,120.0,2.9,149.0,7.9,114.8,568.1,4,10
19,Fujairah,Fujairah,United Arab Emirates,25.123,56.338,2026-07-13 10:45,37.5,99.6,1,2.2,3.6,306,NW,999.0,29.5,0.0,0.0,29,0,32.8,91.0,37.5,99.6,39.2,102.6,16.7,62.1,5.0,3.0,6.9,3.2,5.1,0,0,0,0,148.0,8.4,151.0,11.7,85.7,238.4,4,10
20,Al Ain,Abu Dhabi,United Arab Emirates,24.192,55.761,2026-07-13 10:45,38.3,100.9,1,11.4,18.4,198,SSW,1001.0,29.56,0.0,0.0,23,0,37.5,99.4,38.2,100.8,37.4,99.3,11.0,51.7,10.0,6.0,7.1,13.1,21.1,0,0,0,0,139.0,2.1,145.0,6.4,70.8,255.2,4,9
21,`Ajman,Ajman,United Arab Emirates,25.406,55.443,2026-07-13 10:45,37.4,99.3,1,11.6,18.7,224,SW,998.0,29.47,0.0,0.0,40,0,49.8,121.7,35.0,95.0,43.0,109.5,24.6,76.3,10.0,6.0,6.7,13.4,21.5,0,2,0,0,419.0,18.6,137.0,14.3,85.4,258.0,4,10
22,Adh Dhaid,Umm Al Quwain,United Arab Emirates,25.282,55.89,2026-07-13 11:00,37.4,99.3,1,12.3,19.8,236,SW,998.0,29.47,0.0,0.0,40,0,42.0,107.5,38.8,101.8,44.9,112.8,21.8,71.2,10.0,6.0,9.2,14.2,22.8,0,1,0,0,384.0,17.7,154.0,14.1,90.1,268.2,4,10
23,Abu Dhabi,Abu Dhabi,United Arab Emirates,24.467,54.367,2026-07-13 10:45,37.2,99.0,1,9.4,15.1,246,WSW,998.0,29.47,0.0,0.0,54,0,39.2,102.6,33.3,92.0,41.3,106.3,25.2,77.4,10.0,6.0,6.7,13.7,22.0,0,4,0,0,140.0,13.1,143.0,12.4,73.8,197.4,4,10
24,Abu Hail,Dubai,United Arab Emirates,25.279,55.322,2026-07-13 11:00,36.0,96.8,1,11.9,19.1,245,WSW,998.0,29.47,0.0,0.0,50,0,44.4,111.9,35.9,96.6,44.1,111.3,24.5,76.0,10.0,6.0,9.2,13.7,22.1,0,2,0,0,303.0,30.0,143.0,18.8,85.2,200.7,4,10
25,Raml Sabil,Dubai,United Arab Emirates,25.21,55.284,2026-07-13 10:45,36.3,97.3,1,11.2,18.0,231,SW,998.0,29.47,0.0,0.0,50,0,44.4,111.9,33.6,92.4,42.2,108.0,25.6,78.2,10.0,6.0,6.7,14.0,22.6,0,4,0,0,337.0,31.3,127.0,18.5,79.2,184.4,4,10
26,Al Hamidiyah,Ajman,United Arab Emirates,25.397,55.53,2026-07-13 11:00,37.4,99.3,1,12.3,19.8,236,SW,998.0,29.47,0.0,0.0,40,0,42.0,107.5,38.8,101.8,44.9,112.8,21.8,71.2,10.0,6.0,9.2,14.2,22.8,0,1,0,0,384.0,17.7,154.0,14.1,90.1,268.2,4,10
27,Ferij Al Muhadham,Dubai,United Arab Emirates,25.288,55.318,2026-07-13 11:00,36.0,96.8,1,11.9,19.1,245,WSW,998.0,29.47,0.0,0.0,50,0,44.4,111.9,35.9,96.6,44.1,111.3,24.5,76.0,10.0,6.0,9.2,13.7,22.1,0,2,0,0,303.0,30.0,143.0,18.8,85.2,200.7,4,10
28,Dubai,Dubai,United Arab Emirates,25.252,55.28,2026-07-13 10:45,36.3,97.3,1,11.2,18.0,231,SW,998.0,29.47,0.0,0.0,50,0,44.4,111.9,33.6,92.4,42.2,108.0,25.6,78.2,10.0,6.0,6.7,14.0,22.6,0,4,0,0,337.0,31.3,127.0,18.5,79.2,184.4,4,10
29,Jimeirah,Dubai,United Arab Emirates,25.21,55.248,2026-07-13 10:45,36.3,97.3,1,11.2,18.0,231,SW,998.0,29.47,0.0,0.0,50,0,44.4,111.9,33.6,92.4,42.2,108.0,25.6,78.2,10.0,6.0,6.7,14.0,22.6,0,4,0,0,337.0,31.3,127.0,18.5,79.2,184.4,4,10
30,Umm As Suqaym,Dubai,United Arab Emirates,25.163,55.207,2026-07-13 10:45,36.3,97.3,1,11.4,18.4,226,SW,998.0,29.47,0.0,0.0,50,0,45.0,113.0,35.6,96.1,43.2,109.7,24.0,75.3,10.0,6.0,6.8,13.1,21.1,0,2,0,0,440.0,31.3,127.0,18.5,79.2,184.4,4,10
31,Barr Dubayy,Dubai,United Arab Emirates,25.263,55.294,2026-07-13 10:45,36.3,97.3,1,11.2,18.0,231,SW,998.0,29.47,0.0,0.0,50,0,44.4,111.9,33.6,92.4,42.2,108.0,25.6,78.2,10.0,6.0,6.7,14.0,22.6,0,4,0,0,337.0,31.3,127.0,18.5,79.2,184.4,4,10
32,Al Qurayyah,Abu Dhabi,United Arab Emirates,24.45,54.55,2026-07-13 11:00,37.3,99.1,1,10.5,16.9,274,W,998.0,29.47,0.0,0.0,54,0,40.7,105.2,37.9,100.3,41.9,107.4,19.7,67.5,10.0,6.0,9.0,12.1,19.5,0,1,0,0,162.0,8.5,169.0,10.6,75.4,198.8,4,10
33,Ar Rashidiyah,Dubai,United Arab Emirates,25.215,55.39,2026-07-13 11:00,36.0,96.8,1,11.9,19.1,245,WSW,998.0,29.47,0.0,0.0,50,0,44.4,111.9,35.9,96.6,44.1,111.3,24.5,76.0,10.0,6.0,9.2,13.7,22.1,0,2,0,0,303.0,30.0,143.0,18.8,85.2,200.7,4,10
34,Abu Hail,Dubai,United Arab Emirates,25.279,55.322,2026-07-13 11:00,36.0,96.8,1,11.9,19.1,245,WSW,998.0,29.47,0.0,0.0,50,0,44.4,111.9,35.9,96.6,44.1,111.3,24.5,76.0,10.0,6.0,9.2,13.7,22.1,0,2,0,0,303.0,30.0,143.0,18.8,85.2,200.7,4,10
35,Dubai,Dubai,United Arab Emirates,25.252,55.28,2026-07-13 10:45,36.3,97.3,1,11.2,18.0,231,SW,998.0,29.47,0.0,0.0,50,0,44.4,111.9,33.6,92.4,42.2,108.0,25.6,78.2,10.0,6.0,6.7,14.0,22.6,0,4,0,0,337.0,31.3,127.0,18.5,79.2,184.4,4,10
36,Dubai,Dubai,United Arab Emirates,25.252,55.28,2026-07-13 10:45,36.3,97.3,1,11.2,18.0,231,SW,998.0,29.47,0.0,0.0,50,0,44.4,111.9,33.6,92.4,42.2,108.0,25.6,78.2,10.0,6.0,6.7,14.0,22.6,0,4,0,0,337.0,31.3,127.0,18.5,79.2,184.4,4,10
37,Daira,Dubai,United Arab Emirates,25.272,55.311,2026-07-13 11:00,36.0,96.8,1,11.9,19.1,245,WSW,998.0,29.47,0.0,0.0,50,0,44.4,111.9,35.9,96.6,44.1,111.3,24.5,76.0,10.0,6.0,9.2,13.7,22.1,0,2,0,0,303.0,30.0,143.0,18.8,85.2,200.7,4,10
38,Warisan,Dubai,United Arab Emirates,25.161,55.428,2026-07-13 10:45,36.3,97.3,1,11.4,18.4,226,SW,998.0,29.47,0.0,0.0,50,0,45.0,113.0,35.6,96.1,43.2,109.7,24.0,75.3,10.0,6.0,6.8,13.1,21.1,0,2,0,0,440.0,31.3,127.0,18.5,79.2,184.4,4,10
39,Warisan,Dubai,United Arab Emirates,25.161,55.428,2026-07-13 10:45,36.3,97.3,1,11.4,18.4,226,SW,998.0,29.47,0.0,0.0,50,0,45.0,113.0,35.6,96.1,43.2,109.7,24.0,75.3,10.0,6.0,6.8,13.1,21.1,0,2,0,0,440.0,31.3,127.0,18.5,79.2,184.4,4,10
40,Umm As Suqaym,Dubai,United Arab Emirates,25.163,55.207,2026-07-13 10:45,36.3,97.3,1,11.4,18.4,226,SW,998.0,29.47,0.0,0.0,50,0,45.0,113.0,35.6,96.1,43.2,109.7,24.0,75.3,10.0,6.0,6.8,13.1,21.1,0,2,0,0,440.0,31.3,127.0,18.5,79.2,184.4,4,10
41,Umm As Suqaym,Dubai,United Arab Emirates,25.163,55.207,2026-07-13 10:45,36.3,97.3,1,11.4,18.4,226,SW,998.0,29.47,0.0,0.0,50,0,45.0,113.0,35.6,96.1,43.2,109.7,24.0,75.3,10.0,6.0,6.8,13.1,21.1,0,2,0,0,440.0,31.3,127.0,18.5,79.2,184.4,4,10
42,Al Qawz,Dubai,United Arab Emirates,25.158,55.25,2026-07-13 10:45,36.3,97.3,1,11.4,18.4,226,SW,998.0,29.47,0.0,0.0,50,0,45.0,113.0,35.6,96.1,43.2,109.7,24.0,75.3,10.0,6.0,6.8,13.1,21.1,0,2,0,0,440.0,31.3,127.0,18.5,79.2,184.4,4,10
43,`Ajman,Ajman,United Arab Emirates,25.406,55.443,2026-07-13 10:45,37.4,99.3,1,11.6,18.7,224,SW,998.0,29.47,0.0,0.0,40,0,49.8,121.7,35.0,95.0,43.0,109.5,24.6,76.3,10.0,6.0,6.7,13.4,21.5,0,2,0,0,419.0,18.6,137.0,14.3,85.4,258.0,4,10
44,Al Hamidiyah,Ajman,United Arab Emirates,25.397,55.53,2026-07-13 11:00,37.4,99.3,1,12.3,19.8,236,SW,998.0,29.47,0.0,0.0,40,0,42.0,107.5,38.8,101.8,44.9,112.8,21.8,71.2,10.0,6.0,9.2,14.2,22.8,0,1,0,0,384.0,17.7,154.0,14.1,90.1,268.2,4,10
45,Hizayib Az Zanah,Sharjah,United Arab Emirates,25.316,55.412,2026-07-13 10:45,37.4,99.3,1,11.6,18.7,224,SW,998.0,29.47,0.0,0.0,40,0,49.8,121.7,35.0,95.0,43.0,109.5,24.6,76.3,10.0,6.0,6.7,13.4,21.5,0,2,0,0,419.0,18.6,137.0,14.3,85.4,258.0,4,10
46,Ar Rashidiyah,Dubai,United Arab Emirates,25.215,55.39,2026-07-13 11:00,36.0,96.8,1,11.9,19.1,245,WSW,998.0,29.47,0.0,0.0,50,0,44.4,111.9,35.9,96.6,44.1,111.3,24.5,76.0,10.0,6.0,9.2,13.7,22.1,0,2,0,0,303.0,30.0,143.0,18.8,85.2,200.7,4,10
47,Raml Sabil,Dubai,United Arab Emirates,25.21,55.284,2026-07-13 10:45,36.3,97.3,1,11.2,18.0,231,SW,998.0,29.47,0.0,0.0,50,0,44.4,111.9,33.6,92.4,42.2,108.0,25.6,78.2,10.0,6.0,6.7,14.0,22.6,0,4,0,0,337.0,31.3,127.0,18.5,79.2,184.4,4,10
48,Umm As Suqaym,Dubai,United Arab Emirates,25.163,55.207,2026-07-13 10:45,36.3,97.3,1,11.4,18.4,226,SW,998.0,29.47,0.0,0.0,50,0,45.0,113.0,35.6,96.1,43.2,109.7,24.0,75.3,10.0,6.0,6.8,13.1,21.1,0,2,0,0,440.0,31.3,127.0,18.5,79.2,184.4,4,10
49,Umm Suqaym,Dubai,United Arab Emirates,25.1631,55.2069,2026-07-13 10:45,36.3,97.3,1,11.4,18.4,226,SW,998.0,29.47,0.0,0.0,50,0,45.0,113.0,35.6,96.1,43.2,109.7,24.0,75.3,10.0,6.0,6.8,13.1,21.1,0,2,0,0,440.0,31.3,127.0,18.5,79.2,184.4,4,10
50,Al Mafraq,Abu Dhabi,United Arab Emirates,24.308,54.602,2026-07-13 11:00,37.3,99.1,1,10.5,16.9,274,W,998.0,29.47,0.0,0.0,54,0,40.7,105.2,37.9,100.3,41.9,107.4,19.7,67.5,10.0,6.0,9.0,12.1,19.5,0,1,0,0,162.0,8.5,169.0,10.6,75.4,198.8,4,10
51,Musaffah,Abu Dhabi,United Arab Emirates,24.373,54.511,2026-07-13 11:00,37.3,99.1,1,10.5,16.9,274,W,998.0,29.47,0.0,0.0,54,0,40.7,105.2,37.9,100.3,41.9,107.4,19.7,67.5,10.0,6.0,9.0,12.1,19.5,0,1,0,0,162.0,8.5,169.0,10.6,75.4,198.8,4,10
52,Yafur,Abu Dhabi,United Arab Emirates,24.286,54.639,2026-07-13 11:00,37.3,99.1,1,10.5,16.9,274,W,998.0,29.47,0.0,0.0,54,0,40.7,105.2,37.9,100.3,41.9,107.4,19.7,67.5,10.0,6.0,9.0,12.1,19.5,0,1,0,0,162.0,8.5,169.0,10.6,75.4,198.8,4,10
53,Far`Ah,Fujairah,United Arab Emirates,25.138,56.235,2026-07-13 10:45,37.5,99.6,1,2.2,3.6,306,NW,999.0,29.5,0.0,0.0,29,0,32.8,91.0,37.5,99.6,39.2,102.6,16.7,62.1,5.0,3.0,6.9,3.2,5.1,0,0,0,0,148.0,8.4,151.0,11.7,85.7,238.4,4,10
54,Jimeirah,Dubai,United Arab Emirates,25.21,55.248,2026-07-13 10:45,36.3,97.3,1,11.2,18.0,231,SW,998.0,29.47,0.0,0.0,50,0,44.4,111.9,33.6,92.4,42.2,108.0,25.6,78.2,10.0,6.0,6.7,14.0,22.6,0,4,0,0,337.0,31.3,127.0,18.5,79.2,184.4,4,10
55,Abu Hail,Dubai,United Arab Emirates,25.279,55.322,2026-07-13 11:00,36.0,96.8,1,11.9,19.1,245,WSW,998.0,29.47,0.0,0.0,50,0,44.4,111.9,35.9,96.6,44.1,111.3,24.5,76.0,10.0,6.0,9.2,13.7,22.1,0,2,0,0,303.0,30.0,143.0,18.8,85.2,200.7,4,10
56,Ar Rashidiyah,Dubai,United Arab Emirates,25.215,55.39,2026-07-13 11:00,36.0,96.8,1,11.9,19.1,245,WSW,998.0,29.47,0.0,0.0,50,0,44.4,111.9,35.9,96.6,44.1,111.3,24.5,76.0,10.0,6.0,9.2,13.7,22.1,0,2,0,0,303.0,30.0,143.0,18.8,85.2,200.7,4,10
57,Nadd Ash Shiba,Dubai,United Arab Emirates,25.146,55.334,2026-07-13 10:45,36.3,97.3,1,11.4,18.4,226,SW,998.0,29.47,0.0,0.0,50,0,45.0,113.0,35.6,96.1,43.2,109.7,24.0,75.3,10.0,6.0,6.8,13.1,21.1,0,2,0,0,440.0,31.3,127.0,18.5,79.2,184.4,4,10
58,Umm As Suqaym,Dubai,United Arab Emirates,25.163,55.207,2026-07-13 10:45,36.3,97.3,1,11.4,18.4,226,SW,998.0,29.47,0.0,0.0,50,0,45.0,113.0,35.6,96.1,43.2,109.7,24.0,75.3,10.0,6.0,6.8,13.1,21.1,0,2,0,0,440.0,31.3,127.0,18.5,79.2,184.4,4,10
59,Raml Sabil,Dubai,United Arab Emirates,25.21,55.284,2026-07-13 10:45,36.3,97.3,1,11.2,18.0,231,SW,998.0,29.47,0.0,0.0,50,0,44.4,111.9,33.6,92.4,42.2,108.0,25.6,78.2,10.0,6.0,6.7,14.0,22.6,0,4,0,0,337.0,31.3,127.0,18.5,79.2,184.4,4,10
60,Ferij Al Muhadham,Dubai,United Arab Emirates,25.288,55.318,2026-07-13 11:00,36.0,96.8,1,11.9,19.1,245,WSW,998.0,29.47,0.0,0.0,50,0,44.4,111.9,35.9,96.6,44.1,111.3,24.5,76.0,10.0,6.0,9.2,13.7,22.1,0,2,0,0,303.0,30.0,143.0,18.8,85.2,200.7,4,10
61,Hizayib Az Zanah,Sharjah,United Arab Emirates,25.316,55.412,2026-07-13 10:45,37.4,99.3,1,11.6,18.7,224,SW,998.0,29.47,0.0,0.0,40,0,49.8,121.7,35.0,95.0,43.0,109.5,24.6,76.3,10.0,6.0,6.7,13.4,21.5,0,2,0,0,419.0,18.6,137.0,14.3,85.4,258.0,4,10
62,Al Hamidiyah,Ajman,United Arab Emirates,25.397,55.53,2026-07-13 11:00,37.4,99.3,1,12.3,19.8,236,SW,998.0,29.47,0.0,0.0,40,0,42.0,107.5,38.8,101.8,44.9,112.8,21.8,71.2,10.0,6.0,9.2,14.2,22.8,0,1,0,0,384.0,17.7,154.0,14.1,90.1,268.2,4,10
63,`Ud Al Bayda',Dubai,United Arab Emirates,25.004,55.459,2026-07-13 11:00,36.0,96.8,1,12.5,20.2,222,SW,998.0,29.47,0.0,0.0,50,0,36.0,96.7,40.7,105.3,43.7,110.6,17.8,64.0,10.0,6.0,9.3,14.4,23.2,0,0,0,0,192.0,0.9,157.0,4.5,82.2,303.6,4,10
64,Musaffah,Abu Dhabi,United Arab Emirates,24.373,54.511,2026-07-13 11:00,37.3,99.1,1,10.5,16.9,274,W,998.0,29.47,0.0,0.0,54,0,40.7,105.2,37.9,100.3,41.9,107.4,19.7,67.5,10.0,6.0,9.0,12.1,19.5,0,1,0,0,162.0,8.5,169.0,10.6,75.4,198.8,4,10
65,Shahr-E Now,Nimruz,Afghanistan,30.958,61.86,2026-07-13 11:30,39.2,102.6,1,15.0,24.1,10,N,1001.0,29.56,0.0,0.0,10,0,38.8,101.8,38.7,101.7,38.1,100.5,-2.9,26.8,5.0,3.0,8.7,17.2,27.8,0,0,0,0,109.0,0.2,104.0,0.4,35.5,303.6,2,3
66,Bazar-E Yakavlang,Bamian,Afghanistan,34.735,66.968,2026-07-13 11:15,20.0,68.1,1,8.1,13.0,347,NNW,1007.0,29.74,0.0,0.0,19,1,13.5,56.3,20.0,68.1,20.0,68.1,-4.2,24.5,10.0,6.0,12.6,9.3,14.9,0,0,0,0,106.0,0.0,123.0,0.5,10.1,64.5,1,1
67,Taloqan,Takhar,Afghanistan,36.734,69.54,2026-07-13 11:15,35.0,95.0,1,8.3,13.3,294,WNW,1003.0,29.61,0.0,0.0,13,27,28.4,83.1,35.0,95.0,33.2,91.7,2.0,35.7,10.0,6.0,9.9,9.5,15.3,0,2,0,0,124.0,0.2,120.0,1.2,18.3,102.7,2,2
68,Sindand,Herat,Afghanistan,33.301,62.148,2026-07-13 11:15,35.5,95.9,1,26.6,42.8,23,NNE,1000.0,29.53,0.0,0.0,7,0,23.1,73.6,35.5,95.9,33.8,92.8,-5.2,22.7,10.0,6.0,11.1,30.6,49.3,0,0,0,0,108.0,0.3,118.0,0.4,1.8,1.9,1,1
69,Shibarghan,Jowzjan,Afghanistan,36.667,65.754,2026-07-13 11:30,39.8,103.6,1,15.4,24.8,290,WNW,1001.0,29.56,0.0,0.0,5,0,30.9,87.6,39.8,103.6,39.6,103.2,-6.4,20.5,5.5,3.0,10.2,17.8,28.6,0,0,0,0,111.0,0.4,106.0,0.7,28.9,300.8,2,3
70,Sahrak,Ghowr,Afghanistan,34.108,64.303,2026-07-13 11:30,22.9,73.1,1,15.4,24.8,22,NNE,1007.0,29.75,0.0,0.0,13,0,14.0,57.2,22.9,73.1,22.5,72.5,-6.4,20.4,10.0,6.0,12.6,17.8,28.6,0,0,0,0,106.0,0.2,128.0,0.4,3.8,14.8,1,1
71,Asya-I-Bad,Sar-e Pol,Afghanistan,36.2,65.939,2026-07-13 11:30,28.6,83.4,1,10.3,16.6,348,N,1007.0,29.74,0.0,0.0,15,0,21.4,70.5,28.6,83.4,26.5,79.7,-0.9,30.4,10.0,6.0,11.4,11.8,19.0,0,0,0,0,107.0,0.1,119.0,0.4,5.4,28.5,1,1
72,Sang-E Charak,Sar-e Pol,Afghanistan,35.85,66.437,2026-07-13 11:30,28.6,83.4,1,10.3,16.6,348,N,1007.0,29.74,0.0,0.0,15,0,21.4,70.5,28.6,83.4,26.5,79.7,-0.9,30.4,10.0,6.0,11.4,11.8,19.0,0,0,0,0,107.0,0.1,119.0,0.4,5.4,28.5,1,1
73,Aybak,Samangan,Afghanistan,36.265,68.017,2026-07-13 11:30,33.8,92.9,1,6.9,11.2,341,NNW,1003.0,29.63,0.0,0.0,12,2,27.7,81.9,33.8,92.9,31.8,89.2,0.6,33.0,10.0,6.0,10.6,8.0,12.9,0,0,0,0,118.0,0.1,121.0,1.3,13.9,81.3,1,2
74,Rostaq,Takhar,Afghanistan,37.128,69.831,2026-07-13 11:30,28.5,83.3,1,8.5,13.7,291,WNW,1005.0,29.67,0.0,0.0,17,46,21.9,71.4,28.5,83.3,26.5,79.6,1.5,34.7,10.0,6.0,10.5,9.8,15.7,0,3,0,0,118.0,0.3,117.0,1.0,15.3,91.5,1,2
75,Karkin Bazar,Jowzjan,Afghanistan,37.413,66.047,2026-07-13 11:30,38.4,101.1,1,2.5,4.0,263,W,1000.0,29.54,0.0,0.0,11,0,33.6,92.5,38.4,101.1,37.6,99.6,2.5,36.4,10.0,6.0,8.4,2.8,4.6,0,0,0,0,113.0,0.7,96.0,0.9,19.6,89.6,2,2
76,Hazrat Imam,Kondoz,Afghanistan,37.221,68.78,2026-07-13 11:30,37.4,99.4,1,8.9,14.4,271,W,1001.0,29.56,0.0,0.0,13,16,30.6,87.1,37.4,99.4,36.3,97.3,4.8,40.6,10.0,6.0,8.4,10.3,16.6,0,1,0,0,163.0,0.8,113.0,1.2,25.1,143.9,2,3
77,Pol-E Khomri,Baghlan,Afghanistan,35.943,68.719,2026-07-13 11:30,37.6,99.6,1,7.6,12.2,10,N,1001.0,29.57,0.0,0.0,11,7,31.2,88.2,37.6,99.6,36.5,97.7,1.8,35.2,10.0,6.0,10.2,8.7,14.1,0,1,0,0,122.0,0.3,116.0,0.9,15.0,107.1,1,2
78,Pagman,Kabol,Afghanistan,34.588,68.953,2026-07-13 11:30,28.2,82.7,1,3.1,5.0,50,NE,1003.0,29.6,0.0,0.0,17,2,23.2,73.8,28.1,82.7,26.1,79.1,0.5,32.9,10.0,6.0,11.6,3.6,5.8,0,0,0,0,194.0,0.7,132.0,4.5,13.6,77.1,1,2
79,Nili,Bamian,Afghanistan,33.726,66.131,2026-07-13 11:30,22.1,71.8,1,4.7,7.6,23,NNE,1006.0,29.69,0.0,0.0,16,7,16.6,61.9,22.1,71.8,22.1,71.8,-5.0,23.0,10.0,6.0,12.4,5.4,8.7,0,1,0,0,105.0,0.2,121.0,0.5,9.5,62.2,1,1
80,Nahrin,Baghlan,Afghanistan,36.065,69.134,2026-07-13 11:30,37.6,99.6,1,7.6,12.2,10,N,1001.0,29.57,0.0,0.0,11,7,31.2,88.2,37.6,99.6,36.5,97.7,1.8,35.2,10.0,6.0,10.2,8.7,14.1,0,1,0,0,122.0,0.3,116.0,0.9,15.0,107.1,1,2
81,Maymana,Faryab,Afghanistan,35.921,64.784,2026-07-13 11:30,33.7,92.6,1,9.2,14.8,332,NNW,1005.0,29.68,0.0,0.0,8,0,26.8,80.2,33.7,92.6,31.6,88.9,-5.0,23.1,10.0,6.0,10.9,10.6,17.0,0,0,0,0,100.0,0.1,118.0,0.4,1.5,3.0,1,1
82,Mehtar Lam,Laghman,Afghanistan,34.671,70.209,2026-07-13 11:15,31.1,88.0,1,6.5,10.4,175,S,1002.0,29.58,0.0,0.0,23,2,25.1,77.2,31.1,88.0,29.2,84.5,7.2,45.0,10.0,6.0,11.1,7.5,12.0,0,1,0,0,179.0,0.4,122.0,1.6,13.1,65.4,1,2
83,Mazar-E Sharif,Balkh,Afghanistan,36.707,67.112,2026-07-13 11:15,39.2,102.5,1,14.5,23.4,285,WNW,1001.0,29.57,0.0,0.0,8,0,30.6,87.1,39.2,102.5,38.7,101.7,-1.8,28.8,10.0,6.0,10.0,16.7,26.9,0,0,0,0,121.0,0.6,114.0,2.2,11.9,55.5,1,1
84,Bist,Helmand,Afghanistan,31.589,64.363,2026-07-13 11:30,38.6,101.4,1,6.3,10.1,159,SSE,996.0,29.42,0.0,0.0,7,0,32.6,90.7,38.6,101.4,37.8,100.1,-3.2,26.2,10.0,6.0,10.9,7.2,11.6,0,0,0,0,116.0,0.3,103.0,1.2,16.5,69.8,2,2
85,Kushk,Herat,Afghanistan,33.296,61.953,2026-07-13 11:15,35.5,95.9,1,26.6,42.8,23,NNE,1000.0,29.53,0.0,0.0,7,0,23.1,73.6,35.5,95.9,33.8,92.8,-5.2,22.7,10.0,6.0,11.1,30.6,49.3,0,0,0,0,108.0,0.3,118.0,0.4,1.8,1.9,1,1
86,Qunduz,Kondoz,Afghanistan,36.728,68.865,2026-07-13 11:30,38.7,101.6,1,8.1,13.0,311,NW,1001.0,29.55,0.0,0.0,10,10,32.2,90.0,38.7,101.6,38.0,100.4,1.6,34.8,10.0,6.0,9.8,9.3,14.9,0,1,0,0,119.0,0.3,116.0,1.5,23.9,137.4,2,2
87,Khowst,Khowst,Afghanistan,33.338,69.92,2026-07-13 11:30,32.0,89.6,1,6.9,11.2,128,SE,1000.0,29.54,0.0,0.0,29,7,25.8,78.4,32.0,89.6,31.0,87.9,11.7,53.1,10.0,6.0,10.5,8.0,12.9,0,1,0,0,198.0,0.3,126.0,2.4,18.8,36.7,2,2
88,Kholm,Balkh,Afghanistan,36.695,67.698,2026-07-13 11:30,38.4,101.1,1,13.2,21.2,268,W,1001.0,29.56,0.0,0.0,8,3,30.2,86.4,38.4,101.0,37.6,99.6,-1.1,30.1,10.0,6.0,8.5,15.2,24.4,0,0,0,0,117.0,0.6,105.0,1.7,23.9,141.6,2,2
89,Khash,Nimruz,Afghanistan,31.529,62.793,2026-07-13 11:30,38.9,102.1,1,2.2,3.6,284,WNW,996.0,29.42,0.0,0.0,7,0,34.5,94.1,38.9,102.1,38.4,101.1,-2.2,28.1,10.0,6.0,10.9,6.7,10.8,0,0,0,0,109.0,0.2,107.0,0.4,6.1,26.4,1,1
90,Khaneshin,Helmand,Afghanistan,30.549,63.79,2026-07-13 11:30,38.1,100.6,1,2.2,3.6,25,NNE,996.0,29.42,0.0,0.0,8,0,33.5,92.3,38.1,100.6,37.2,99.0,-1.6,29.2,8.2,5.0,11.1,6.7,10.8,0,0,0,0,108.0,0.2,100.0,0.4,28.9,189.1,2,3
91,Khanabad,Kondoz,Afghanistan,36.683,69.116,2026-07-13 11:30,38.7,101.6,1,8.1,13.0,311,NW,1001.0,29.55,0.0,0.0,10,10,32.2,90.0,38.7,101.6,38.0,100.4,1.6,34.8,10.0,6.0,9.8,9.3,14.9,0,1,0,0,119.0,0.3,116.0,1.5,23.9,137.4,2,2
92,Karukh,Herat,Afghanistan,34.479,62.587,2026-07-13 11:30,27.7,81.8,1,23.5,37.8,22,NNE,1007.0,29.73,0.0,0.0,11,0,16.3,61.3,27.7,81.8,25.7,78.3,-5.4,22.4,10.0,6.0,11.5,27.0,43.5,0,0,0,0,99.0,0.3,110.0,0.4,2.1,3.1,1,1
93,Qandahar,Kandahar,Afghanistan,31.613,65.709,2026-07-13 11:15,37.2,99.0,1,5.4,8.6,161,SSE,997.0,29.44,0.0,0.0,9,0,31.5,88.7,37.2,99.0,36.0,96.8,-0.2,31.7,4.7,2.0,10.1,6.2,9.9,0,0,0,0,118.0,0.2,107.0,1.0,59.8,312.9,3,8
94,Sahre Naw,Kabol,Afghanistan,34.532,69.17,2026-07-13 11:30,28.2,82.7,1,3.1,5.0,50,NE,1003.0,29.6,0.0,0.0,17,2,23.2,73.8,28.1,82.7,26.1,79.1,0.5,32.9,10.0,6.0,11.6,3.6,5.8,0,0,0,0,194.0,0.7,132.0,4.5,13.6,77.1,1,2
95,Jurm,Badakhshan,Afghanistan,36.867,70.834,2026-07-13 11:30,15.0,59.0,1,5.8,9.4,296,WNW,1011.0,29.85,0.05,0.0,40,50,9.2,48.6,15.0,59.0,15.0,59.0,1.5,34.7,9.0,5.0,9.2,6.7,10.8,0,17,0,0,107.0,0.2,114.0,0.7,11.6,43.0,1,1
96,Jalalabad,Nangarhar,Afghanistan,34.426,70.451,2026-07-13 11:30,36.7,98.1,1,2.2,3.6,336,NNW,998.0,29.47,0.0,0.0,18,0,32.1,89.8,36.7,98.1,35.3,95.6,8.6,47.5,10.0,6.0,10.7,2.3,3.7,0,0,0,0,233.0,0.8,138.0,2.9,18.5,66.6,2,2
97,Djabal-Ul-Seradj,Oruzgan,Afghanistan,35.118,69.238,2026-07-13 11:30,28.5,83.3,1,12.1,19.4,342,NNW,1004.0,29.65,0.0,0.0,19,3,20.7,69.3,28.5,83.3,26.4,79.6,3.0,37.4,10.0,6.0,11.7,13.9,22.4,0,0,0,0,110.0,0.2,120.0,0.9,11.1,65.9,1,1
98,Herat,Herat,Afghanistan,34.347,62.198,2026-07-13 11:15,33.9,93.0,1,28.0,45.0,23,NNE,1004.0,29.65,0.0,0.0,8,0,21.2,70.2,33.9,93.0,31.9,89.4,-4.6,23.7,10.0,6.0,11.1,32.2,51.8,0,0,0,0,109.0,0.4,107.0,0.4,4.0,8.2,1,1
99,Ghormach,Badghis,Afghanistan,35.726,63.789,2026-07-13 11:30,36.3,97.4,1,6.5,10.4,22,NNE,1004.0,29.64,0.0,0.0,7,0,30.3,86.5,36.3,97.4,34.8,94.7,-5.6,22.0,10.0,6.0,10.7,7.5,12.0,0,0,0,0,101.0,0.3,111.0,0.3,1.5,1.5,1,1
100,Gazni,Ghazni,Afghanistan,33.551,68.423,2026-07-13 11:30,26.5,79.7,1,2.2,3.6,101,ESE,1003.0,29.61,0.0,0.0,17,11,22.1,71.8,26.5,79.7,24.8,76.7,-0.7,30.7,10.0,6.0,12.0,6.7,10.8,0,1,0,0,107.0,0.1,123.0,0.8,11.4,69.6,1,1
101,Hesah-E Tank,Helmand,Afghanistan,31.823,64.568,2026-07-13 11:30,38.6,101.4,1,6.3,10.1,159,SSE,996.0,29.42,0.0,0.0,7,0,32.6,90.7,38.6,101.4,37.8,100.1,-3.2,26.2,10.0,6.0,10.9,7.2,11.6,0,0,0,0,116.0,0.3,103.0,1.2,16.5,69.8,2,2
102,Gardez,Paktia,Afghanistan,33.599,69.225,2026-07-13 11:15,25.0,77.0,1,6.7,10.8,297,WNW,1004.0,29.64,0.0,0.0,20,0,18.9,66.0,25.0,77.0,23.8,74.8,0.4,32.7,10.0,6.0,12.4,7.7,12.4,0,0,0,0,111.0,0.2,129.0,1.0,9.4,47.3,1,1
103,Faizabad,Badakhshan,Afghanistan,37.118,70.58,2026-07-13 11:15,24.6,76.3,1,6.7,10.8,279,W,1006.0,29.72,0.0,0.0,22,48,18.5,65.3,24.6,76.3,23.8,74.8,1.8,35.2,10.0,6.0,9.5,7.7,12.4,0,3,0,0,111.0,0.3,116.0,0.9,25.6,133.6,2,3
104,Farah,Farah,Afghanistan,32.374,62.116,2026-07-13 11:30,38.8,101.9,1,11.2,18.0,30,NNE,997.0,29.44,0.0,0.0,6,0,31.3,88.3,38.8,101.9,38.2,100.8,-4.2,24.5,10.0,6.0,10.9,12.9,20.7,0,0,0,0,109.0,0.2,117.0,0.4,2.1,3.2,1,1
105,Estalef,Kabol,Afghanistan,34.833,69.077,2026-07-13 11:30,28.2,82.7,1,3.1,5.0,50,NE,1003.0,29.6,0.0,0.0,17,2,23.2,73.8,28.1,82.7,26.1,79.1,0.5,32.9,10.0,6.0,11.6,3.6,5.8,0,0,0,0,194.0,0.7,132.0,4.5,13.6,77.1,1,2
106,Kafir Qala,Herat,Afghanistan,34.667,61.067,2026-07-13 11:30,35.6,96.1,1,28.6,46.1,20,NNE,1005.0,29.67,0.0,0.0,8,0,22.6,72.7,35.6,96.1,33.9,93.0,-4.1,24.7,10.0,6.0,10.9,32.9,53.0,0,0,0,0,106.0,0.3,106.0,0.4,9.2,28.5,1,1
107,Carikar,Kondoz,Afghanistan,35.014,69.171,2026-07-13 11:30,28.5,83.3,1,12.1,19.4,342,NNW,1004.0,29.65,0.0,0.0,19,3,20.7,69.3,28.5,83.3,26.4,79.6,3.0,37.4,10.0,6.0,11.7,13.9,22.4,0,0,0,0,110.0,0.2,120.0,0.9,11.1,65.9,1,1
108,Baraki Barak,Lowgar,Afghanistan,33.968,68.949,2026-07-13 11:30,23.7,74.6,1,2.7,4.3,20,NNE,1003.0,29.63,0.0,0.0,17,0,18.8,65.8,23.7,74.6,23.0,73.3,-2.7,27.1,10.0,6.0,12.1,3.1,5.0,0,0,0,0,110.0,0.1,119.0,0.6,12.3,80.1,1,2
109,Bamian,Bamian,Afghanistan,34.824,67.822,2026-07-13 11:15,19.7,67.4,1,10.3,16.6,10,N,1010.0,29.82,0.0,0.0,24,0,12.5,54.5,19.7,67.4,19.7,67.4,-1.7,29.0,10.0,6.0,12.6,11.8,19.0,0,0,0,0,112.0,0.2,119.0,0.6,10.9,70.8,1,1
110,Balkh,Balkh,Afghanistan,36.759,66.896,2026-07-13 11:30,39.8,103.7,1,15.9,25.6,284,WNW,1001.0,29.55,0.0,0.0,7,0,30.9,87.6,39.8,103.7,39.7,103.4,-2.1,28.2,10.0,6.0,9.8,18.3,29.4,0,0,0,0,111.0,0.4,110.0,0.9,14.0,83.1,1,2
111,Becharek,Badakhshan,Afghanistan,37.003,70.908,2026-07-13 11:30,15.0,59.0,1,5.8,9.4,296,WNW,1011.0,29.85,0.05,0.0,40,50,9.2,48.6,15.0,59.0,15.0,59.0,1.5,34.7,9.0,5.0,9.2,6.7,10.8,0,17,0,0,107.0,0.2,114.0,0.7,11.6,43.0,1,1
112,Baglan,Baghlan,Afghanistan,36.127,68.705,2026-07-13 11:30,37.6,99.6,1,7.6,12.2,10,N,1001.0,29.57,0.0,0.0,11,7,31.2,88.2,37.6,99.6,36.5,97.7,1.8,35.2,10.0,6.0,10.2,8.7,14.1,0,1,0,0,122.0,0.3,116.0,0.9,15.0,107.1,1,2
113,Art Khvajeh,Takhar,Afghanistan,37.084,69.481,2026-07-13 11:30,37.4,99.4,1,8.9,14.4,271,W,1001.0,29.56,0.0,0.0,13,16,30.6,87.1,37.4,99.4,36.3,97.3,4.8,40.6,10.0,6.0,8.4,10.3,16.6,0,1,0,0,163.0,0.8,113.0,1.2,25.1,143.9,2,3
114,Asmar,Konar,Afghanistan,35.033,71.358,2026-07-13 11:30,29.4,85.0,1,7.4,11.9,176,S,1002.0,29.6,0.03,0.0,39,75,23.1,73.6,29.4,85.0,29.3,84.7,13.9,57.0,10.0,6.0,10.9,8.5,13.7,0,8,0,0,162.0,0.2,115.0,0.4,5.6,12.8,1,1
115,Asadabad,Konar,Afghanistan,34.873,71.146,2026-07-13 11:30,29.4,85.0,1,7.4,11.9,176,S,1002.0,29.6,0.03,0.0,39,75,23.1,73.6,29.4,85.0,29.3,84.7,13.9,57.0,10.0,6.0,10.9,8.5,13.7,0,8,0,0,162.0,0.2,115.0,0.4,5.6,12.8,1,1
116,Andkhoi,Faryab,Afghanistan,36.953,65.124,2026-07-13 11:30,39.9,103.7,1,15.7,25.2,312,NW,1001.0,29.57,0.0,0.0,5,0,31.0,87.8,39.9,103.7,39.7,103.5,-6.6,20.1,10.0,6.0,8.6,18.0,29.0,0,0,0,0,97.0,0.5,95.0,0.3,6.3,48.4,1,1
117,Bazarak,Nangarhar,Afghanistan,35.313,69.514,2026-07-13 11:30,28.5,83.3,1,12.1,19.4,342,NNW,1004.0,29.65,0.0,0.0,19,3,20.7,69.3,28.5,83.3,26.4,79.6,3.0,37.4,10.0,6.0,11.7,13.9,22.4,0,0,0,0,110.0,0.2,120.0,0.9,11.1,65.9,1,1
118,Achin-Ulusvali,Nangarhar,Afghanistan,34.126,70.708,2026-07-13 11:30,32.2,89.9,1,4.7,7.6,342,NNW,1000.0,29.52,0.0,0.0,25,3,26.7,80.1,32.2,89.9,30.8,87.3,9.9,49.9,10.0,6.0,9.6,5.4,8.7,0,1,0,0,227.0,0.7,131.0,1.7,17.8,39.2,2,2
119,Saint John's,Saint John,Antigua and Barbuda,17.117,-61.85,2026-07-13 03:00,27.2,80.9,0,16.8,27.0,93,E,1016.0,30.01,0.06,0.0,79,77,30.1,86.2,27.2,80.9,30.5,87.0,23.3,73.9,10.0,6.0,0.0,23.9,38.5,0,23,0,0,87.0,0.1,36.0,0.2,15.7,46.6,2,2
120,The Valley,,Anguilla,18.217,-63.05,2026-07-13 02:45,28.2,82.8,0,18.3,29.5,94,E,1018.0,30.06,0.0,0.0,79,50,32.8,91.1,27.3,81.1,30.8,87.5,23.6,74.5,10.0,6.0,0.0,25.6,41.3,0,12,0,0,87.0,0.1,35.0,0.2,13.7,39.2,1,2
121,Sarande,Vlore,Albania,39.876,20.005,2026-07-13 09:00,27.1,80.8,1,2.7,4.3,328,NNW,1012.0,29.88,0.0,0.0,70,0,27.9,82.2,26.2,79.2,27.0,80.6,15.7,60.2,10.0,6.0,1.7,3.4,5.5,0,2,0,0,117.0,3.3,77.0,0.7,8.5,10.2,1,1
122,Pogradec,Korce,Albania,40.903,20.653,2026-07-13 09:00,23.2,73.8,1,3.4,5.4,53,NE,1018.0,30.06,0.0,0.0,57,25,25.0,77.0,21.5,70.7,24.5,76.0,13.0,55.4,10.0,6.0,3.7,3.9,6.2,0,4,0,0,112.0,1.2,78.0,7.8,5.9,7.2,1,1
123,Librazhd,Elbasan,Albania,41.179,20.315,2026-07-13 08:45,24.5,76.2,1,4.3,6.8,74,ENE,1016.0,29.99,0.0,0.0,52,6,19.2,66.6,24.5,76.2,25.6,78.0,13.9,57.0,10.0,6.0,1.8,4.9,7.9,0,2,0,0,115.0,1.2,64.0,0.7,5.9,7.8,1,1
124,Kukes,Kukes,Albania,42.077,20.422,2026-07-13 09:00,22.3,72.2,1,7.6,12.2,28,NNE,1018.0,30.05,0.0,0.0,53,6,16.0,60.8,22.3,72.2,24.6,76.2,12.4,54.2,10.0,6.0,3.7,8.7,14.1,0,3,0,0,107.0,1.3,76.0,4.0,5.4,7.2,1,1
125,Korce,Korce,Albania,40.619,20.781,2026-07-13 08:45,23.2,73.8,1,4.3,6.8,37,NE,1018.0,30.06,0.0,0.0,57,25,25.1,77.1,19.8,67.7,19.8,67.7,13.5,56.3,10.0,6.0,1.9,4.9,7.9,0,5,0,0,114.0,2.1,57.0,0.8,7.3,9.6,1,1
126,Gjirokaster,Gjirokaster,Albania,40.076,20.139,2026-07-13 09:00,27.9,82.3,1,4.0,6.5,345,NNW,1014.0,29.95,0.0,0.0,34,3,22.7,72.9,28.0,82.3,27.3,81.1,10.8,51.4,10.0,6.0,3.6,4.6,7.5,0,1,0,0,119.0,1.0,84.0,0.5,6.5,7.8,1,1
127,Elbasan,Elbasan,Albania,41.113,20.082,2026-07-13 08:45,25.3,77.5,1,3.1,5.0,74,ENE,1014.0,29.94,0.0,0.0,57,0,25.9,78.5,25.4,77.8,26.0,78.7,12.9,55.2,10.0,6.0,1.7,3.6,5.8,0,1,0,0,118.0,3.6,62.0,1.8,6.7,8.1,1,1
128,Bulqize,Diber,Albania,41.492,20.222,2026-07-13 09:00,21.7,71.0,1,3.8,6.1,52,NE,1017.0,30.03,0.0,0.0,54,11,16.5,61.7,21.7,71.0,24.4,76.0,11.9,53.5,10.0,6.0,3.7,4.4,7.1,0,3,0,0,110.0,0.7,75.0,0.8,5.2,6.2,1,1
129,Vlore,Vlore,Albania,40.467,19.49,2026-07-13 09:00,25.5,77.9,1,5.8,9.4,335,NNW,1014.0,29.94,0.0,0.0,54,5,21.4,70.5,25.5,77.9,26.4,79.5,15.4,59.7,10.0,6.0,3.3,8.3,13.4,0,2,0,0,123.0,1.2,89.0,0.5,6.8,9.2,1,1
130,Tirana,Tirane,Albania,41.328,19.819,2026-07-13 08:45,25.3,77.5,1,2.2,3.6,49,NE,1014.0,29.94,0.0,0.0,57,0,25.7,78.2,25.7,78.3,26.0,78.8,12.0,53.5,10.0,6.0,1.7,6.7,10.8,0,1,0,0,138.0,10.8,63.0,5.6,8.0,10.4,1,1
131,Shkoder,Shkoder,Albania,42.068,19.513,2026-07-13 09:00,29.3,84.7,1,5.4,8.6,19,NNE,1015.0,29.97,0.0,0.0,33,0,28.6,83.4,28.6,83.5,27.9,82.2,11.1,51.9,10.0,6.0,3.4,6.2,9.9,0,1,0,0,121.0,1.3,76.0,1.5,5.4,6.7,1,1
132,Arapaj,Durres,Albania,41.303,19.506,2026-07-13 08:45,24.0,75.2,1,2.7,4.3,72,ENE,1014.0,29.95,0.0,0.0,56,6,19.2,66.6,24.0,75.2,25.4,77.7,14.8,58.7,10.0,6.0,1.6,3.8,6.1,0,3,0,0,138.0,4.9,61.0,3.2,8.7,9.9,1,1
133,Peqin,Elbasan,Albania,41.046,19.751,2026-07-13 09:00,25.4,77.7,1,2.2,3.6,35,NE,1014.0,29.94,0.0,0.0,57,0,25.6,78.2,27.9,82.1,27.7,81.9,13.2,55.8,10.0,6.0,3.5,6.7,10.8,0,1,0,0,117.0,2.2,70.0,2.2,6.4,8.0,1,1
134,Patos Fshat,Fier,Albania,40.643,19.651,2026-07-13 08:45,25.2,77.4,1,2.2,3.6,57,ENE,1014.0,29.95,0.0,0.0,53,6,21.3,70.3,25.2,77.4,26.2,79.1,15.1,59.2,10.0,6.0,1.6,2.5,4.0,0,3,0,0,132.0,5.9,78.0,1.5,8.4,12.6,1,1
135,Patos,Fier,Albania,40.683,19.619,2026-07-13 08:45,25.2,77.4,1,2.2,3.6,57,ENE,1014.0,29.95,0.0,0.0,53,6,21.3,70.3,25.2,77.4,26.2,79.1,15.1,59.2,10.0,6.0,1.6,2.5,4.0,0,3,0,0,132.0,5.9,78.0,1.5,8.4,12.6,1,1
136,Lushnje,Fier,Albania,40.942,19.705,2026-07-13 09:00,25.4,77.7,1,2.5,4.0,328,NNW,1014.0,29.94,0.0,0.0,57,0,25.2,77.3,28.6,83.5,27.8,82.0,10.6,51.2,10.0,6.0,3.4,2.8,4.6,0,1,0,0,125.0,3.0,82.0,0.6,8.5,10.5,1,1
137,Lezhe,Lezhe,Albania,41.784,19.644,2026-07-13 09:00,29.3,84.7,1,5.4,8.6,19,NNE,1015.0,29.97,0.0,0.0,33,0,28.6,83.4,28.6,83.5,27.9,82.2,11.1,51.9,10.0,6.0,3.4,6.2,9.9,0,1,0,0,121.0,1.3,76.0,1.5,5.4,6.7,1,1
138,Kucove,Berat,Albania,40.8,19.917,2026-07-13 09:00,25.4,77.7,1,2.5,4.0,328,NNW,1014.0,29.94,0.0,0.0,57,0,25.2,77.3,28.6,83.5,27.8,82.0,10.6,51.2,10.0,6.0,3.4,2.8,4.6,0,1,0,0,125.0,3.0,82.0,0.6,8.5,10.5,1,1
139,Kruje,Durres,Albania,41.509,19.793,2026-07-13 09:00,25.4,77.7,1,2.9,4.7,327,NNW,1014.0,29.94,0.0,0.0,57,0,25.5,77.8,28.0,82.4,27.6,81.7,12.1,53.9,10.0,6.0,3.4,3.4,5.4,0,1,0,0,133.0,6.5,71.0,3.4,9.0,12.7,1,1
140,Kavaje,Tirane,Albania,41.186,19.557,2026-07-13 08:45,24.0,75.2,1,2.7,4.3,72,ENE,1014.0,29.95,0.0,0.0,56,6,19.2,66.6,24.0,75.2,25.4,77.7,14.8,58.7,10.0,6.0,1.6,3.8,6.1,0,3,0,0,138.0,4.9,61.0,3.2,8.7,9.9,1,1
141,Fushe-Kruje,Durres,Albania,41.478,19.718,2026-07-13 09:00,25.4,77.7,1,2.9,4.7,327,NNW,1014.0,29.94,0.0,0.0,57,0,25.5,77.8,28.0,82.4,27.6,81.7,12.1,53.9,10.0,6.0,3.4,3.4,5.4,0,1,0,0,133.0,6.5,71.0,3.4,9.0,12.7,1,1
142,(( Fier-Cifci )),Fier,Albania,40.717,19.567,2026-07-13 08:45,25.2,77.4,1,2.2,3.6,57,ENE,1014.0,29.95,0.0,0.0,53,6,21.3,70.3,25.2,77.4,26.2,79.1,15.1,59.2,10.0,6.0,1.6,2.5,4.0,0,3,0,0,132.0,5.9,78.0,1.5,8.4,12.6,1,1
143,Fier,Fier,Albania,40.724,19.556,2026-07-13 08:45,25.2,77.4,1,2.2,3.6,57,ENE,1014.0,29.95,0.0,0.0,53,6,21.3,70.3,25.2,77.4,26.2,79.1,15.1,59.2,10.0,6.0,1.6,2.5,4.0,0,3,0,0,132.0,5.9,78.0,1.5,8.4,12.6,1,1
144,Durres,Durres,Albania,41.323,19.441,2026-07-13 08:45,24.0,75.2,1,2.7,4.3,72,ENE,1014.0,29.95,0.0,0.0,56,6,19.2,66.6,24.0,75.2,25.4,77.7,14.8,58.7,10.0,6.0,1.6,3.8,6.1,0,3,0,0,138.0,4.9,61.0,3.2,8.7,9.9,1,1
145,Berat,Berat,Albania,40.706,19.952,2026-07-13 09:00,28.0,82.4,1,2.7,4.3,320,NW,1014.0,29.95,0.0,0.0,33,5,23.2,73.8,28.0,82.4,27.2,81.0,10.2,50.4,10.0,6.0,3.4,3.1,5.0,0,1,0,0,127.0,2.2,87.0,0.7,7.5,9.8,1,1
146,Barabat'um,Syunik',Armenia,39.211,46.416,2026-07-13 10:45,25.3,77.5,1,5.1,8.3,76,ENE,1012.0,29.89,0.0,0.0,54,14,20.6,69.1,25.3,77.5,26.2,79.2,15.3,59.6,10.0,6.0,6.3,5.9,9.5,0,3,0,0,107.0,0.6,88.0,0.7,13.0,31.3,1,2
147,Goris,Syunik',Armenia,39.508,46.339,2026-07-13 11:00,23.1,73.5,1,4.9,7.9,105,ESE,1012.0,29.9,0.0,0.0,57,8,17.5,63.5,23.1,73.5,24.9,76.8,14.1,57.4,10.0,6.0,9.1,5.7,9.1,0,3,0,0,105.0,0.3,84.0,0.7,11.3,28.5,1,1
148,Artashat,Ararat,Armenia,39.954,44.551,2026-07-13 11:00,29.2,84.6,1,2.7,4.3,251,WSW,1012.0,29.88,0.0,0.0,45,0,29.3,84.7,29.5,85.1,29.6,85.3,14.9,58.8,10.0,6.0,8.3,3.1,5.0,0,1,0,0,130.0,1.0,84.0,0.5,7.2,10.3,1,1
149,Avshar,Ararat,Armenia,39.841,44.684,2026-07-13 11:00,29.2,84.6,1,2.7,4.3,251,WSW,1012.0,29.88,0.0,0.0,45,0,29.3,84.7,29.5,85.1,29.6,85.3,14.9,58.8,10.0,6.0,8.3,3.1,5.0,0,1,0,0,130.0,1.0,84.0,0.5,7.2,10.3,1,1
150,Yerevan,Yerevan,Armenia,40.181,44.514,2026-07-13 10:45,27.5,81.5,1,2.2,3.6,162,SSE,1009.0,29.79,0.0,0.0,44,7,27.5,81.5,27.5,81.6,27.7,81.8,14.2,57.5,10.0,6.0,5.8,6.7,10.8,0,1,0,0,133.0,3.7,72.0,0.6,7.1,10.3,1,1
151,Ejmiatsin,Armavir,Armenia,40.173,44.293,2026-07-13 11:00,29.2,84.6,1,2.2,3.6,144,SE,1012.0,29.88,0.0,0.0,45,0,29.0,84.1,30.0,86.1,30.0,85.9,14.3,57.8,10.0,6.0,8.2,2.6,4.1,0,1,0,0,130.0,1.0,87.0,0.5,7.1,12.6,1,1
152,Sevan,Geghark'unik',Armenia,40.555,44.954,2026-07-13 11:00,18.8,65.8,1,6.0,9.7,43,NE,1013.0,29.91,0.01,0.0,76,81,12.9,55.2,18.8,65.8,18.8,65.8,14.6,58.2,10.0,6.0,6.9,7.0,11.2,0,18,0,0,110.0,0.5,72.0,0.3,5.3,7.7,1,1
153,Hrazdan,Ararat,Armenia,40.067,44.436,2026-07-13 11:00,29.2,84.6,1,2.2,3.6,221,SW,1012.0,29.88,0.0,0.0,45,0,29.0,84.3,29.7,85.5,29.6,85.4,14.3,57.8,10.0,6.0,8.3,6.7,10.8,0,1,0,0,130.0,1.7,89.0,0.6,6.9,11.6,1,1
154,Vanadzor,Lorri,Armenia,40.813,44.488,2026-07-13 11:00,20.0,68.0,1,4.7,7.6,50,NE,1014.0,29.93,0.04,0.0,83,79,14.5,58.1,20.0,68.0,20.0,68.0,17.1,62.7,10.0,6.0,5.9,5.4,8.7,0,24,0,0,112.0,0.7,68.0,0.3,5.3,7.2,1,1
155,Gavar,Geghark'unik',Armenia,40.359,45.127,2026-07-13 10:45,18.1,64.6,1,3.8,6.1,75,ENE,1013.0,29.93,0.0,0.0,72,10,12.9,55.2,18.1,64.6,18.1,64.6,13.0,55.3,10.0,6.0,6.0,4.4,7.1,0,7,0,0,106.0,1.4,71.0,0.3,9.5,15.7,1,1
156,Ijevan,Tavush,Armenia,40.876,45.149,2026-07-13 10:45,22.4,72.3,1,3.6,5.8,21,NNE,1013.0,29.92,0.02,0.0,76,72,17.3,63.1,22.4,72.3,24.7,76.5,18.1,64.5,10.0,6.0,4.3,4.1,6.6,0,17,0,0,105.0,1.0,78.0,0.5,12.9,21.1,1,2
157,Hrazdan,Kotayk',Armenia,40.502,44.755,2026-07-13 11:00,20.0,68.0,1,7.6,12.2,40,NE,1012.0,29.89,0.0,0.0,74,11,13.6,56.5,20.0,68.0,20.0,68.0,15.2,59.4,10.0,6.0,8.1,8.7,14.1,0,8,0,0,109.0,0.5,71.0,0.4,5.8,8.8,1,1
158,Hoktemberyan,Armavir,Armenia,40.152,44.031,2026-07-13 10:45,29.3,84.7,1,2.2,3.6,309,NW,1012.0,29.88,0.0,0.0,45,0,29.7,85.5,27.7,81.9,27.9,82.2,14.4,57.9,10.0,6.0,5.6,6.7,10.8,0,2,0,0,131.0,1.4,76.0,0.5,6.7,9.9,1,1
159,Gyumri,Shirak,Armenia,40.789,43.848,2026-07-13 11:00,23.2,73.8,1,6.5,10.4,69,ENE,1018.0,30.06,0.02,0.0,61,25,25.0,77.1,22.7,72.9,24.8,76.6,15.0,59.0,10.0,6.0,8.2,7.5,12.0,0,13,0,0,120.0,0.6,73.0,0.2,5.6,8.2,1,1
160,Dilijan,Tavush,Armenia,40.741,44.863,2026-07-13 11:00,19.5,67.2,1,4.0,6.5,45,NE,1014.0,29.94,0.03,0.0,83,75,14.3,57.7,19.5,67.2,19.5,67.2,16.5,61.7,10.0,6.0,5.9,4.6,7.5,0,23,0,0,113.0,0.6,69.0,0.3,5.2,7.8,1,1
161,Davidashen,Kotayk',Armenia,40.216,44.481,2026-07-13 10:45,27.5,81.5,1,2.2,3.6,162,SSE,1009.0,29.79,0.0,0.0,44,7,27.5,81.5,27.5,81.6,27.7,81.8,14.2,57.5,10.0,6.0,5.8,6.7,10.8,0,1,0,0,133.0,3.7,72.0,0.6,7.1,10.3,1,1
162,Ch'arants'avan,Kotayk',Armenia,40.41,44.643,2026-07-13 10:45,21.3,70.3,1,3.6,5.8,42,NE,1012.0,29.88,0.0,0.0,66,10,16.2,61.2,21.3,70.3,24.5,76.0,14.7,58.5,10.0,6.0,6.0,4.1,6.6,0,5,0,0,114.0,0.6,71.0,0.4,5.8,9.7,1,1
163,Avan,Yerevan,Armenia,40.215,44.579,2026-07-13 10:45,25.2,77.4,1,2.2,3.6,333,NNW,1010.0,29.82,0.0,0.0,49,7,21.6,70.9,25.2,77.4,25.9,78.7,13.6,56.5,10.0,6.0,5.9,6.7,10.8,0,2,0,0,127.0,2.4,74.0,0.7,6.9,11.9,1,1
164,Ashtarak,Aragatsotn,Armenia,40.302,44.359,2026-07-13 11:00,29.2,84.6,1,2.2,3.6,144,SE,1012.0,29.88,0.0,0.0,45,0,29.0,84.1,30.0,86.1,30.0,85.9,14.3,57.8,10.0,6.0,8.2,2.6,4.1,0,1,0,0,130.0,1.0,87.0,0.5,7.1,12.6,1,1
165,Art'ik,Shirak,Armenia,40.617,43.976,2026-07-13 10:45,23.1,73.6,1,6.9,11.2,61,ENE,1018.0,30.06,0.01,0.0,61,25,25.0,77.0,21.3,70.3,24.5,76.0,14.8,58.7,10.0,6.0,5.6,8.0,12.9,0,14,0,0,120.0,0.9,71.0,0.2,5.5,7.5,1,1
166,Abovyan,Kotayk',Armenia,40.269,44.624,2026-07-13 10:45,25.2,77.4,1,2.2,3.6,333,NNW,1010.0,29.82,0.0,0.0,49,7,21.6,70.9,25.2,77.4,25.9,78.7,13.6,56.5,10.0,6.0,5.9,6.7,10.8,0,2,0,0,127.0,2.4,74.0,0.7,6.9,11.9,1,1
167,Erebuni,Yerevan,Armenia,40.14,44.528,2026-07-13 10:45,27.5,81.5,1,2.2,3.6,162,SSE,1009.0,29.79,0.0,0.0,44,7,27.5,81.5,27.5,81.6,27.7,81.8,14.2,57.5,10.0,6.0,5.8,6.7,10.8,0,1,0,0,133.0,3.7,72.0,0.6,7.1,10.3,1,1
168,Nor-Norka,Yerevan,Armenia,40.198,44.565,2026-07-13 10:45,27.5,81.5,1,2.2,3.6,162,SSE,1009.0,29.79,0.0,0.0,44,7,27.5,81.5,27.5,81.6,27.7,81.8,14.2,57.5,10.0,6.0,5.8,6.7,10.8,0,1,0,0,133.0,3.7,72.0,0.6,7.1,10.3,1,1
169,Aj'ap'nyak,Yerevan,Armenia,40.199,44.471,2026-07-13 10:45,27.5,81.5,1,2.2,3.6,162,SSE,1009.0,29.79,0.0,0.0,44,7,27.5,81.5,27.5,81.6,27.7,81.8,14.2,57.5,10.0,6.0,5.8,6.7,10.8,0,1,0,0,133.0,3.7,72.0,0.6,7.1,10.3,1,1
170,Kanaker,Yerevan,Armenia,40.22,44.538,2026-07-13 10:45,27.5,81.5,1,2.2,3.6,162,SSE,1009.0,29.79,0.0,0.0,44,7,27.5,81.5,27.5,81.6,27.7,81.8,14.2,57.5,10.0,6.0,5.8,6.7,10.8,0,1,0,0,133.0,3.7,72.0,0.6,7.1,10.3,1,1
171,Nor-Kesariya,Yerevan,Armenia,40.176,44.451,2026-07-13 10:45,27.5,81.5,1,2.2,3.6,162,SSE,1009.0,29.79,0.0,0.0,44,7,27.5,81.5,27.5,81.6,27.7,81.8,14.2,57.5,10.0,6.0,5.8,6.7,10.8,0,1,0,0,133.0,3.7,72.0,0.6,7.1,10.3,1,1
172,Yerevan,Yerevan,Armenia,40.181,44.514,2026-07-13 10:45,27.5,81.5,1,2.2,3.6,162,SSE,1009.0,29.79,0.0,0.0,44,7,27.5,81.5,27.5,81.6,27.7,81.8,14.2,57.5,10.0,6.0,5.8,6.7,10.8,0,1,0,0,133.0,3.7,72.0,0.6,7.1,10.3,1,1
173,Yerevan,Yerevan,Armenia,40.181,44.514,2026-07-13 10:45,27.5,81.5,1,2.2,3.6,162,SSE,1009.0,29.79,0.0,0.0,44,7,27.5,81.5,27.5,81.6,27.7,81.8,14.2,57.5,10.0,6.0,5.8,6.7,10.8,0,1,0,0,133.0,3.7,72.0,0.6,7.1,10.3,1,1
174,Arabkir,Yerevan,Armenia,40.2,44.494,2026-07-13 10:45,27.5,81.5,1,2.2,3.6,162,SSE,1009.0,29.79,0.0,0.0,44,7,27.5,81.5,27.5,81.6,27.7,81.8,14.2,57.5,10.0,6.0,5.8,6.7,10.8,0,1,0,0,133.0,3.7,72.0,0.6,7.1,10.3,1,1
175,Saurimo,Lunda Sul,Angola,-9.65,20.4,2026-07-13 08:00,20.5,68.9,1,6.7,10.8,164,SSE,1018.0,30.05,0.0,0.0,23,0,14.4,57.9,20.5,68.9,20.5,68.9,-1.5,29.4,10.0,6.0,1.5,7.7,12.4,0,0,0,0,321.0,7.4,96.0,1.6,33.3,34.3,2,3
176,Lucapa,Lunda Norte,Angola,-8.417,20.75,2026-07-13 07:45,19.1,66.4,1,5.6,9.0,190,S,1015.0,29.98,0.0,0.0,29,0,13.4,56.1,19.1,66.4,19.1,66.4,0.5,32.9,10.0,6.0,0.2,10.0,16.1,0,0,0,0,511.0,11.2,82.0,1.6,34.0,35.0,2,3
177,Dundo,Lunda Norte,Angola,-7.35,20.817,2026-07-13 08:00,28.7,83.7,1,6.7,10.8,171,S,1014.0,29.95,0.0,0.0,16,3,22.6,72.7,28.7,83.7,26.6,79.9,0.6,33.0,10.0,6.0,1.7,7.7,12.4,0,0,0,0,400.0,7.2,123.0,1.9,47.5,49.8,3,5
178,Chilalo,Lunda Norte,Angola,-7.3,20.733,2026-07-13 08:00,28.7,83.7,1,6.7,10.8,171,S,1014.0,29.95,0.0,0.0,16,3,22.6,72.7,28.7,83.7,26.6,79.9,0.6,33.0,10.0,6.0,1.7,7.7,12.4,0,0,0,0,400.0,7.2,123.0,1.9,47.5,49.8,3,5
179,Cassanguide,Lunda Norte,Angola,-7.483,21.3,2026-07-13 08:00,25.1,77.2,1,5.6,9.0,163,SSE,1015.0,29.97,0.0,0.0,24,4,19.4,66.9,25.1,77.2,24.2,75.6,3.0,37.4,10.0,6.0,0.7,6.4,10.4,0,1,0,0,360.0,10.1,97.0,1.8,42.8,44.0,3,5
180,Gago Coutinho,Moxico,Angola,-14.1,21.433,2026-07-13 08:00,17.8,64.0,1,4.5,7.2,116,ESE,1020.0,30.12,0.0,0.0,27,0,12.4,54.3,17.8,64.0,17.8,64.0,-1.2,29.8,10.0,6.0,1.8,5.1,8.3,0,0,0,0,175.0,5.7,67.0,2.2,30.0,30.2,2,3
181,Luau,Moxico,Angola,-10.7,22.233,2026-07-13 08:00,15.7,60.3,1,5.4,8.6,169,S,1017.0,30.04,0.0,0.0,33,0,10.0,50.0,15.7,60.3,15.7,60.3,-0.4,31.2,10.0,6.0,0.4,11.3,18.1,0,1,0,0,331.0,6.3,88.0,1.4,26.6,27.6,2,3
182,Cazombo,Moxico,Angola,-11.9,22.917,2026-07-13 08:00,21.1,70.0,1,4.5,7.2,121,ESE,1018.0,30.06,0.0,0.0,31,0,15.7,60.3,21.1,70.0,23.1,73.6,3.5,38.2,10.0,6.0,1.6,5.1,8.3,0,1,0,0,445.0,4.0,92.0,1.4,24.4,25.4,2,3
183,Zage,Cuanza Norte,Angola,-8.383,15.3,2026-07-13 07:45,16.5,61.7,1,2.2,3.6,106,ESE,1016.0,30.0,0.0,0.0,52,0,11.8,53.2,16.5,61.7,16.5,61.7,6.7,44.0,10.0,6.0,0.2,4.7,7.6,0,2,0,0,292.0,9.6,68.0,1.0,35.0,37.3,2,3
184,Viana,Huambo,Angola,-8.903,13.372,2026-07-13 08:00,17.3,63.1,1,4.3,6.8,160,SSE,1015.0,29.97,0.0,0.0,94,100,17.3,63.1,18.6,65.5,18.6,65.5,16.1,61.1,3.5,2.0,0.7,5.7,9.2,0,13,0,0,291.0,5.1,82.0,6.4,15.3,20.4,1,2
185,Uige,Uige,Angola,-7.617,15.05,2026-07-13 08:00,21.7,71.0,1,2.9,4.7,158,SSE,1016.0,29.99,0.0,0.0,40,0,16.7,62.1,21.7,71.0,23.9,75.1,7.4,45.3,10.0,6.0,0.8,3.9,6.3,0,1,0,0,418.0,7.3,107.0,1.7,36.1,38.1,2,4
186,Castendo,Bengo,Angola,-8.65,14.167,2026-07-13 08:00,19.2,66.6,1,2.2,3.6,133,SE,1016.0,30.0,0.0,0.0,60,0,15.2,59.4,19.2,66.7,19.2,66.7,11.4,52.5,10.0,6.0,0.8,6.7,10.8,0,3,0,0,173.0,4.8,51.0,1.7,24.6,26.7,2,3
187,Bembe,Zaire,Angola,-6.8,13.3,2026-07-13 08:00,18.4,65.2,1,3.4,5.4,194,SSW,1016.0,30.01,0.0,0.0,66,0,13.4,56.1,18.4,65.2,18.4,65.2,12.0,53.7,10.0,6.0,0.8,4.7,7.6,0,5,0,0,184.0,2.3,79.0,3.5,14.2,15.9,1,2
188,Soyo,Zaire,Angola,-6.133,12.367,2026-07-13 08:00,20.3,68.5,1,5.4,8.6,170,S,1016.0,30.0,0.0,0.0,94,100,20.3,68.5,19.6,67.2,19.6,67.2,16.5,61.8,4.0,2.0,0.7,7.2,11.5,0,11,0,0,182.0,1.8,73.0,0.8,14.4,19.2,1,2
189,Fazenda Da Dica,Uige,Angola,-7.367,14.85,2026-07-13 08:00,21.7,71.0,1,2.9,4.7,158,SSE,1016.0,29.99,0.0,0.0,40,0,16.7,62.1,21.7,71.0,23.9,75.1,7.4,45.3,10.0,6.0,0.8,3.9,6.3,0,1,0,0,418.0,7.3,107.0,1.7,36.1,38.1,2,4
190,Sanza Pombo,Uige,Angola,-7.317,16.0,2026-07-13 08:00,23.0,73.4,1,2.2,3.6,159,SSE,1016.0,30.0,0.0,0.0,34,3,18.4,65.1,23.0,73.4,24.0,75.1,6.3,43.4,10.0,6.0,0.8,2.3,3.7,0,1,0,0,534.0,15.3,87.0,2.1,65.9,68.9,4,9
191,Fazenda Novo Minho,Cuanza Norte,Angola,-8.55,14.433,2026-07-13 08:00,19.2,66.6,1,2.2,3.6,133,SE,1016.0,30.0,0.0,0.0,60,0,15.2,59.4,19.2,66.7,19.2,66.7,11.4,52.5,10.0,6.0,0.8,6.7,10.8,0,3,0,0,173.0,4.8,51.0,1.7,24.6,26.7,2,3
192,Fazenda Joao Setas,Cuanza Norte,Angola,-8.717,14.467,2026-07-13 08:00,19.2,66.6,1,2.2,3.6,133,SE,1016.0,30.0,0.0,0.0,60,0,15.2,59.4,19.2,66.7,19.2,66.7,11.4,52.5,10.0,6.0,0.8,6.7,10.8,0,3,0,0,173.0,4.8,51.0,1.7,24.6,26.7,2,3
193,Ambrisette,Zaire,Angola,-7.233,12.867,2026-07-13 08:00,19.0,66.2,1,6.7,10.8,173,S,1016.0,30.01,0.0,0.0,88,33,12.9,55.2,19.0,66.2,19.0,66.2,17.0,62.6,10.0,6.0,0.6,9.0,14.4,0,16,0,0,163.0,0.6,82.0,1.2,10.4,15.1,1,1
194,Dimuca,Uige,Angola,-7.767,15.267,2026-07-13 08:00,23.5,74.2,1,3.8,6.1,136,SE,1016.0,30.0,0.0,0.0,30,0,18.3,64.9,23.5,74.2,23.8,74.9,4.8,40.6,10.0,6.0,0.8,4.4,7.1,0,0,0,0,208.0,7.3,107.0,1.7,36.1,38.1,2,4
195,Catome,Cuanza Norte,Angola,-9.3,14.917,2026-07-13 08:00,21.4,70.5,1,2.9,4.7,105,ESE,1016.0,30.0,0.0,0.0,45,0,16.5,61.7,21.4,70.5,24.2,75.5,9.1,48.4,10.0,6.0,0.8,4.1,6.6,0,1,0,0,346.0,8.5,48.0,1.1,31.1,33.1,2,3
196,General Freire,Bengo,Angola,-8.117,14.283,2026-07-13 08:00,21.0,69.8,1,2.2,3.6,178,S,1016.0,30.0,0.0,0.0,52,0,16.5,61.7,21.0,69.8,24.3,75.8,10.9,51.6,10.0,6.0,0.8,6.7,10.8,0,2,0,0,212.0,3.8,67.0,2.6,29.0,30.0,2,3
197,Mussende,Cuanza Sul,Angola,-10.517,16.017,2026-07-13 08:00,18.2,64.8,1,4.5,7.2,135,SE,1019.0,30.09,0.0,0.0,28,0,12.8,55.0,18.2,64.8,18.2,64.8,-0.4,31.3,10.0,6.0,1.4,5.1,8.3,0,0,0,0,339.0,11.4,98.0,1.8,40.4,42.1,3,4
198,M'banza Congo,Zaire,Angola,-6.267,14.25,2026-07-13 08:00,21.1,70.1,1,3.6,5.8,213,SSW,1015.0,29.99,0.0,0.0,58,0,16.0,60.8,21.1,70.1,24.4,76.0,12.6,54.6,10.0,6.0,0.8,4.1,6.6,0,3,0,0,326.0,5.9,83.0,4.1,26.0,27.0,2,3
199,Damba,Uige,Angola,-6.05,15.1,2026-07-13 07:45,18.7,65.6,1,3.1,5.0,183,S,1015.0,29.98,0.0,0.0,55,0,13.7,56.7,18.7,65.6,18.7,65.6,9.4,48.8,10.0,6.0,0.2,5.9,9.5,0,3,0,0,304.0,8.5,70.0,2.2,47.6,48.4,3,5
200,Malanje,Malanje,Angola,-9.545,16.345,2026-07-13 07:45,15.3,59.6,1,3.4,5.4,151,SSE,1017.0,30.04,0.0,0.0,39,0,10.3,50.5,15.3,59.6,15.3,59.6,1.5,34.8,9.8,6.0,0.3,7.0,11.3,0,1,0,0,546.0,19.6,56.0,3.9,70.8,75.0,4,9
201,Luanda,Cuanza Norte,Angola,-8.838,13.234,2026-07-13 08:00,17.3,63.1,1,4.3,6.8,160,SSE,1015.0,29.97,0.0,0.0,94,100,17.3,63.1,18.6,65.5,18.6,65.5,16.1,61.1,3.5,2.0,0.7,5.7,9.3,0,13,0,0,291.0,5.1,82.0,6.4,15.3,20.4,1,2
202,Mabubas,Bengo,Angola,-8.532,13.696,2026-07-13 07:45,15.5,59.9,1,2.2,3.6,122,ESE,1016.0,29.99,0.0,0.0,90,11,10.9,51.6,15.5,59.9,15.5,59.9,13.9,57.0,10.0,6.0,0.1,3.2,5.2,0,14,0,0,210.0,2.3,62.0,1.0,8.6,11.2,1,1
203,Embondeiro,Cuanza Norte,Angola,-9.283,15.267,2026-07-13 08:00,21.4,70.5,1,2.9,4.7,105,ESE,1016.0,30.0,0.0,0.0,45,0,16.5,61.7,21.4,70.5,24.2,75.5,9.1,48.4,10.0,6.0,0.8,4.1,6.6,0,1,0,0,346.0,8.5,48.0,1.1,31.1,33.1,2,3
204,Cha Catambo,Lunda Norte,Angola,-9.233,19.217,2026-07-13 08:00,21.6,70.9,1,6.0,9.7,128,SE,1017.0,30.03,0.0,0.0,23,0,15.7,60.3,21.6,70.9,22.3,72.1,-0.5,31.1,10.0,6.0,1.2,7.1,11.4,0,0,0,0,264.0,5.1,98.0,1.0,21.8,22.8,2,2
205,Luanda,Cuanza Norte,Angola,-8.838,13.234,2026-07-13 08:00,17.3,63.1,1,4.3,6.8,160,SSE,1015.0,29.97,0.0,0.0,94,100,17.3,63.1,18.6,65.5,18.6,65.5,16.1,61.1,3.5,2.0,0.7,5.7,9.3,0,13,0,0,291.0,5.1,82.0,6.4,15.3,20.4,1,2
206,Cunda Rio-Baza,Malanje,Angola,-8.9,17.067,2026-07-13 08:00,22.9,73.2,1,3.6,5.8,159,SSE,1016.0,30.0,0.0,0.0,26,0,17.8,64.0,22.9,73.2,23.2,73.7,2.2,35.9,10.0,6.0,0.9,4.1,6.6,0,0,0,0,719.0,15.0,97.0,2.8,69.6,72.2,4,9
207,Quifica,Lunda Norte,Angola,-8.958,13.166,2026-07-13 08:00,17.3,63.1,1,4.3,6.8,160,SSE,1015.0,29.97,0.0,0.0,94,100,17.3,63.1,18.6,65.5,18.6,65.5,16.1,61.1,3.5,2.0,0.7,5.7,9.2,0,13,0,0,291.0,5.1,82.0,6.4,15.3,20.4,1,2
208,General Freire,Bengo,Angola,-8.117,14.283,2026-07-13 08:00,21.0,69.8,1,2.2,3.6,178,S,1016.0,30.0,0.0,0.0,52,0,16.5,61.7,21.0,69.8,24.3,75.8,10.9,51.6,10.0,6.0,0.8,6.7,10.8,0,2,0,0,212.0,3.8,67.0,2.6,29.0,30.0,2,3
209,Galungo Alto,Cuanza Norte,Angola,-9.133,14.767,2026-07-13 08:00,21.4,70.5,1,2.9,4.7,105,ESE,1016.0,30.0,0.0,0.0,45,0,16.5,61.7,21.4,70.5,24.2,75.5,9.1,48.4,10.0,6.0,0.8,4.1,6.6,0,1,0,0,346.0,8.5,48.0,1.1,31.1,33.1,2,3
210,Cabaza,Cuanza Norte,Angola,-9.683,14.417,2026-07-13 07:45,16.1,60.9,1,2.2,3.6,40,NE,1015.0,29.99,0.0,0.0,93,46,11.9,53.4,16.1,60.9,16.1,60.9,15.0,59.0,10.0,6.0,0.1,6.7,10.8,0,20,0,0,165.0,3.8,65.0,1.6,15.8,18.9,2,2
211,Dange-E-Atumba,Cuanza Norte,Angola,-9.05,15.333,2026-07-13 08:00,22.2,71.9,1,2.9,4.7,138,SE,1017.0,30.02,0.0,0.0,40,0,17.3,63.1,22.2,71.9,24.1,75.3,8.1,46.5,10.0,6.0,0.9,3.4,5.4,0,1,0,0,296.0,18.7,76.0,2.3,62.6,65.0,3,8
212,Cuimba,Zaire,Angola,-6.117,14.633,2026-07-13 08:00,21.1,70.1,1,3.6,5.8,213,SSW,1015.0,29.99,0.0,0.0,58,0,16.0,60.8,21.1,70.1,24.4,76.0,12.6,54.6,10.0,6.0,0.8,4.1,6.6,0,3,0,0,326.0,5.9,83.0,4.1,26.0,27.0,2,3
213,Cabila,Lunda Norte,Angola,-8.167,19.567,2026-07-13 07:45,16.8,62.2,1,4.9,7.9,179,S,1017.0,30.02,0.0,0.0,33,0,11.2,52.2,16.8,62.2,16.8,62.2,0.4,32.7,10.0,6.0,0.2,10.3,16.6,0,1,0,0,514.0,10.8,88.0,1.7,38.3,39.6,2,4
214,Cuango,Lunda Norte,Angola,-9.133,18.05,2026-07-13 08:00,22.7,72.9,1,5.1,8.3,127,SE,1016.0,30.0,0.0,0.0,23,0,17.1,62.8,22.7,72.9,22.9,73.2,0.8,33.5,10.0,6.0,1.1,6.2,10.0,0,0,0,0,398.0,9.2,99.0,1.8,36.0,37.1,2,4
215,Cazemba,Cuanza Norte,Angola,-8.733,15.367,2026-07-13 07:45,16.5,61.7,1,2.2,3.6,106,ESE,1016.0,30.0,0.0,0.0,52,0,11.8,53.2,16.5,61.7,16.5,61.7,6.7,44.0,10.0,6.0,0.2,4.7,7.6,0,2,0,0,292.0,9.6,68.0,1.0,35.0,37.3,2,3
216,Caxito,Bengo,Angola,-8.58,13.664,2026-07-13 07:45,15.5,59.9,1,2.2,3.6,122,ESE,1016.0,29.99,0.0,0.0,90,11,10.9,51.6,15.5,59.9,15.5,59.9,13.9,57.0,10.0,6.0,0.1,3.2,5.2,0,14,0,0,210.0,2.3,62.0,1.0,8.6,11.2,1,1
217,Cagandala,Malanje,Angola,-9.783,16.433,2026-07-13 07:45,15.3,59.6,1,3.4,5.4,151,SSE,1017.0,30.04,0.0,0.0,39,0,10.3,50.5,15.3,59.6,15.3,59.6,1.5,34.8,9.8,6.0,0.3,7.0,11.3,0,1,0,0,546.0,19.6,56.0,3.9,70.8,75.0,4,9
218,Quifula,Bengo,Angola,-8.15,14.1,2026-07-13 08:00,21.0,69.8,1,2.2,3.6,178,S,1016.0,30.0,0.0,0.0,52,0,16.5,61.7,21.0,69.8,24.3,75.8,10.9,51.6,10.0,6.0,0.8,6.7,10.8,0,2,0,0,212.0,3.8,67.0,2.6,29.0,30.0,2,3
219,Camabatela,Cuanza Norte,Angola,-8.183,15.367,2026-07-13 08:00,21.7,71.0,1,3.8,6.1,128,SE,1016.0,30.01,0.0,0.0,33,0,16.5,61.7,21.7,71.0,23.5,74.2,4.9,40.7,10.0,6.0,0.8,5.5,8.8,0,1,0,0,236.0,4.8,100.0,1.0,27.5,29.0,2,3
220,Calumbo,Huila,Angola,-9.15,13.417,2026-07-13 08:00,17.3,63.1,1,2.2,3.6,151,SSE,1015.0,29.97,0.0,0.0,94,100,17.3,63.1,19.4,66.9,19.4,66.9,15.9,60.6,3.5,2.0,0.7,2.6,4.2,0,10,0,0,153.0,3.1,86.0,4.1,13.6,17.9,1,2
221,Cage,Bengo,Angola,-8.317,14.35,2026-07-13 08:00,21.0,69.8,1,2.2,3.6,178,S,1016.0,30.0,0.0,0.0,52,0,16.5,61.7,21.0,69.8,24.3,75.8,10.9,51.6,10.0,6.0,0.8,6.7,10.8,0,2,0,0,212.0,3.8,67.0,2.6,29.0,30.0,2,3
222,Cacoso,Malanje,Angola,-9.417,15.75,2026-07-13 08:00,22.2,71.9,1,2.9,4.7,138,SE,1017.0,30.02,0.0,0.0,40,0,17.3,63.1,22.2,71.9,24.1,75.3,8.1,46.5,10.0,6.0,0.9,3.4,5.4,0,1,0,0,296.0,18.7,76.0,2.3,62.6,65.0,3,8
223,Bengo,Cuando Cubango,Angola,-8.777,13.372,2026-07-13 08:00,17.3,63.1,1,4.3,6.8,160,SSE,1015.0,29.97,0.0,0.0,94,100,17.3,63.1,18.6,65.5,18.6,65.5,16.1,61.1,3.5,2.0,0.7,5.7,9.3,0,13,0,0,291.0,5.1,82.0,6.4,15.3,20.4,1,2
224,Cabinda,Cabinda,Angola,-5.55,12.2,2026-07-13 08:00,20.2,68.4,1,6.9,11.2,167,SSE,1016.0,30.0,0.0,0.0,94,100,20.2,68.4,19.8,67.6,19.8,67.6,16.8,62.3,4.0,2.0,0.6,9.0,14.4,0,14,0,0,222.0,3.4,80.0,0.9,37.3,45.4,2,4
225,Bula Atumba,Cuanza Norte,Angola,-8.667,14.8,2026-07-13 08:00,21.5,70.6,1,2.2,3.6,105,ESE,1016.0,30.0,0.0,0.0,47,0,17.0,62.6,21.5,70.6,24.2,75.6,9.7,49.4,10.0,6.0,0.8,6.7,10.8,0,1,0,0,422.0,8.1,55.0,1.3,39.8,40.9,2,4
226,Bucco-Lau,Cabinda,Angola,-4.767,12.55,2026-07-13 08:00,18.2,64.8,1,2.9,4.7,166,SSE,1016.0,30.02,0.0,0.0,85,74,13.3,55.9,18.2,64.8,18.2,64.8,15.7,60.3,10.0,6.0,0.3,3.6,5.8,0,21,0,0,213.0,1.1,90.0,0.8,18.6,22.8,2,2
227,Belize,Cabinda,Angola,-4.65,12.767,2026-07-13 07:45,15.0,59.1,1,2.5,4.0,223,SW,1016.0,29.99,0.0,0.0,91,4,10.3,50.5,15.0,59.1,15.0,59.1,13.5,56.3,10.0,6.0,0.1,4.4,7.1,0,14,0,0,197.0,1.4,82.0,0.6,14.7,17.3,1,2
228,Barra Do Dande,Bengo,Angola,-8.467,13.367,2026-07-13 08:00,17.3,63.1,1,4.3,6.8,160,SSE,1015.0,29.97,0.0,0.0,94,100,17.3,63.1,18.6,65.5,18.6,65.5,16.1,61.1,3.5,2.0,0.7,5.7,9.3,0,13,0,0,291.0,5.1,82.0,6.4,15.3,20.4,1,2
229,Bailundo,Malanje,Angola,-9.571,16.001,2026-07-13 08:00,20.6,69.0,1,4.5,7.2,148,SSE,1017.0,30.04,0.0,0.0,29,0,15.2,59.4,20.5,69.0,20.5,69.0,2.1,35.9,9.2,5.0,1.0,5.4,8.7,0,1,0,0,431.0,15.4,84.0,3.5,75.9,79.2,4,10
230,Gama,Bengo,Angola,-8.568,13.476,2026-07-13 07:45,15.5,59.9,1,2.2,3.6,122,ESE,1016.0,29.99,0.0,0.0,90,11,10.9,51.6,15.5,59.9,15.5,59.9,13.9,57.0,10.0,6.0,0.1,3.2,5.2,0,14,0,0,210.0,2.3,62.0,1.0,8.6,11.2,1,1
231,Cazenga,Cuanza Norte,Angola,-8.821,13.291,2026-07-13 08:00,17.3,63.1,1,4.3,6.8,160,SSE,1015.0,29.97,0.0,0.0,94,100,17.3,63.1,18.6,65.5,18.6,65.5,16.1,61.1,3.5,2.0,0.7,5.7,9.2,0,13,0,0,291.0,5.1,82.0,6.4,15.3,20.4,1,2
232,Golfe,Malanje,Angola,-8.866,13.261,2026-07-13 08:00,17.3,63.1,1,4.3,6.8,160,SSE,1015.0,29.97,0.0,0.0,94,100,17.3,63.1,18.6,65.5,18.6,65.5,16.1,61.1,3.5,2.0,0.7,5.7,9.2,0,13,0,0,291.0,5.1,82.0,6.4,15.3,20.4,1,2
233,Camama,Uige,Angola,-8.934,13.264,2026-07-13 08:00,17.3,63.1,1,4.3,6.8,160,SSE,1015.0,29.97,0.0,0.0,94,100,17.3,63.1,18.6,65.5,18.6,65.5,16.1,61.1,3.5,2.0,0.7,5.7,9.2,0,13,0,0,291.0,5.1,82.0,6.4,15.3,20.4,1,2
234,Talatona,Cunene,Angola,-8.919,13.185,2026-07-13 08:00,17.3,63.1,1,4.3,6.8,160,SSE,1015.0,29.97,0.0,0.0,94,100,17.3,63.1,18.6,65.5,18.6,65.5,16.1,61.1,3.5,2.0,0.7,5.7,9.2,0,13,0,0,291.0,5.1,82.0,6.4,15.3,20.4,1,2
235,Chingongo,Cunene,Angola,-16.75,14.983,2026-07-13 07:45,11.2,52.1,1,2.2,3.6,353,N,1019.0,30.1,0.0,0.0,35,0,6.5,43.7,11.7,53.0,11.2,52.1,-3.7,25.3,10.0,6.0,0.2,4.2,6.8,0,1,0,0,95.0,4.4,44.0,0.6,5.4,5.5,1,1
236,Alto Hama,Huambo,Angola,-12.233,15.55,2026-07-13 08:00,16.2,61.1,1,2.2,3.6,101,ESE,1020.0,30.12,0.0,0.0,32,0,11.6,52.9,16.2,61.1,16.2,61.1,-0.4,31.3,10.0,6.0,1.2,6.7,10.8,0,1,0,0,534.0,16.3,65.0,2.2,59.5,61.7,3,8
237,Virei,Namibe,Angola,-15.717,12.95,2026-07-13 08:00,22.4,72.3,1,2.7,4.3,47,NE,1015.0,29.98,0.0,0.0,30,0,17.6,63.7,22.4,72.3,23.5,74.2,4.2,39.6,10.0,6.0,1.0,3.9,6.3,0,1,0,0,108.0,4.1,38.0,0.8,15.5,55.1,2,2
238,Catari,Huambo,Angola,-12.983,15.067,2026-07-13 08:00,19.0,66.2,1,4.7,7.6,76,ENE,1018.0,30.06,0.0,0.0,27,0,13.6,56.5,19.0,66.2,19.0,66.2,-0.5,31.2,10.0,6.0,1.2,5.5,8.9,0,0,0,0,214.0,14.1,50.0,1.2,30.7,31.5,2,3
239,Embala Sao Tome,Cuanza Sul,Angola,-11.417,14.3,2026-07-13 07:45,17.3,63.1,1,4.0,6.5,93,E,1016.0,29.99,0.0,0.0,56,0,12.0,53.6,17.3,63.1,17.3,63.1,8.4,47.2,10.0,6.0,0.2,8.5,13.6,0,3,0,0,367.0,16.2,54.0,2.4,58.4,60.5,3,7
240,Port Alexander,Namibe,Angola,-15.8,11.85,2026-07-13 07:45,16.2,61.1,1,6.7,10.8,199,SSW,1015.0,29.96,0.0,0.0,77,0,10.1,50.2,16.2,61.1,16.2,61.1,12.1,53.7,10.0,6.0,0.1,14.1,22.7,0,8,0,0,129.0,0.6,59.0,0.4,15.0,43.0,1,2
241,Sumbe,Cuanza Sul,Angola,-11.2,13.833,2026-07-13 08:00,21.6,70.9,1,2.2,3.6,334,NNW,1016.0,29.99,0.0,0.0,43,2,17.5,63.5,21.6,70.9,24.1,75.3,8.5,47.2,10.0,6.0,0.9,6.7,10.8,0,1,0,0,450.0,12.3,86.0,2.5,60.8,62.2,3,8
242,Gambos,Huila,Angola,-14.817,14.55,2026-07-13 07:45,10.7,51.2,1,3.8,6.1,32,NNE,1019.0,30.09,0.0,0.0,35,0,9.4,48.9,10.2,50.4,10.7,51.2,-4.1,24.7,10.0,6.0,0.2,8.0,12.9,0,1,0,0,102.0,2.2,44.0,0.4,3.8,3.9,1,1
243,Kibala,Cuanza Sul,Angola,-10.733,14.983,2026-07-13 08:00,17.7,63.8,1,3.4,5.4,136,SE,1018.0,30.07,0.0,0.0,32,0,12.6,54.7,17.7,63.8,17.7,63.8,0.9,33.6,10.0,6.0,1.1,5.0,8.0,0,1,0,0,448.0,16.0,72.0,2.5,60.1,62.9,3,8
244,Amboim,Cuanza Sul,Angola,-10.733,13.75,2026-07-13 07:45,18.8,65.8,1,2.2,3.6,129,SE,1015.0,29.97,0.0,0.0,92,48,14.1,57.4,18.8,65.8,18.8,65.8,17.4,63.3,10.0,6.0,0.2,3.0,4.8,0,20,0,0,133.0,0.1,83.0,1.6,10.3,17.6,1,1
245,Ondjiva,Cunene,Angola,-17.067,15.733,2026-07-13 07:45,10.8,51.4,1,2.2,3.6,30,NNE,1019.0,30.1,0.0,0.0,34,0,6.2,43.2,11.3,52.3,10.8,51.4,-4.3,24.3,10.0,6.0,0.2,4.2,6.8,0,1,0,0,115.0,9.5,47.0,3.8,9.8,10.1,1,1
246,N'harea,Bie,Angola,-11.467,16.967,2026-07-13 07:45,14.6,58.3,1,3.1,5.0,185,S,1018.0,30.06,0.0,0.0,38,0,9.6,49.3,15.0,59.0,14.6,58.3,0.7,33.2,10.0,6.0,0.3,6.6,10.6,0,1,0,0,586.0,18.2,66.0,2.2,47.8,48.9,3,5
247,Namibe,Namibe,Angola,-15.196,12.152,2026-07-13 07:45,16.2,61.1,1,6.7,10.8,199,SSW,1015.0,29.96,0.0,0.0,77,0,10.1,50.2,16.2,61.1,16.2,61.1,12.1,53.7,10.0,6.0,0.1,14.1,22.7,0,8,0,0,129.0,0.6,59.0,0.4,15.0,43.0,1,2
248,Mungo,Huambo,Angola,-11.833,16.233,2026-07-13 07:45,12.1,53.8,1,2.2,3.6,154,SSE,1020.0,30.12,0.0,0.0,41,0,7.5,45.5,12.7,54.9,12.1,53.8,-0.8,30.6,10.0,6.0,0.3,4.2,6.8,0,1,0,0,345.0,15.3,69.0,2.0,49.8,51.3,3,6
249,Menongue,Cuando Cubango,Angola,-14.667,17.7,2026-07-13 08:00,16.6,61.9,1,2.5,4.0,53,NE,1020.0,30.12,0.0,0.0,23,0,11.8,53.2,16.6,61.9,16.6,61.9,-4.7,23.6,10.0,6.0,1.5,2.8,4.6,0,0,0,0,182.0,6.2,71.0,1.3,14.3,14.5,1,2
250,Aldeia Da Matala,Huila,Angola,-14.733,15.033,2026-07-13 08:00,15.8,60.4,1,3.6,5.8,37,NE,1019.0,30.1,0.0,0.0,29,0,10.6,51.1,15.8,60.4,15.8,60.4,-2.2,28.0,10.0,6.0,1.2,5.2,8.4,0,1,0,0,114.0,3.2,76.0,0.9,10.7,10.9,1,1
251,Luquembo,Malanje,Angola,-10.733,17.717,2026-07-13 08:00,18.9,66.1,1,6.5,10.4,160,SSE,1018.0,30.05,0.0,0.0,29,0,12.9,55.2,19.0,66.1,19.0,66.1,0.8,33.5,10.0,6.0,1.2,8.7,14.0,0,1,0,0,577.0,14.4,92.0,2.2,51.8,53.4,3,6
252,Luena,Moxico,Angola,-11.783,19.917,2026-07-13 08:00,18.2,64.8,1,4.0,6.5,155,SSE,1019.0,30.09,0.0,0.0,26,0,13.0,55.4,18.2,64.8,18.2,64.8,-1.5,29.4,10.0,6.0,1.8,4.7,7.5,0,0,0,0,270.0,4.4,99.0,1.5,22.1,22.5,2,2
253,Lubango,Huila,Angola,-14.917,13.5,2026-07-13 08:00,16.8,62.3,1,2.2,3.6,115,ESE,1019.0,30.08,0.0,0.0,26,0,12.2,54.0,16.8,62.3,16.8,62.3,-2.9,26.8,10.0,6.0,1.1,3.1,5.0,0,0,0,0,191.0,2.6,65.0,0.9,7.0,7.8,1,1
254,Longonjo,Huambo,Angola,-12.907,15.253,2026-07-13 08:00,12.4,54.3,1,3.1,5.0,87,E,1025.0,30.27,0.0,0.0,62,0,12.5,54.4,15.9,60.7,15.9,60.7,-2.4,27.6,10.0,6.0,1.2,4.3,6.9,0,1,0,0,249.0,6.6,59.0,0.8,18.8,19.2,2,2
255,Londuimbali,Huambo,Angola,-12.25,15.317,2026-07-13 08:00,16.2,61.1,1,2.2,3.6,101,ESE,1020.0,30.12,0.0,0.0,32,0,11.6,52.9,16.2,61.1,16.2,61.1,-0.4,31.3,10.0,6.0,1.2,6.7,10.8,0,1,0,0,534.0,16.3,65.0,2.2,59.5,61.7,3,8
256,Nutaca,Benguela,Angola,-12.392,13.557,2026-07-13 08:00,20.4,68.6,1,3.4,5.4,342,NNW,1015.0,29.98,0.0,0.0,74,0,15.3,59.5,20.4,68.6,20.4,68.6,15.5,59.9,10.0,6.0,1.0,4.4,7.1,0,7,0,0,134.0,6.5,48.0,3.6,21.1,27.4,2,2
257,Kuito,Bie,Angola,-12.383,16.933,2026-07-13 08:00,16.9,62.4,1,3.4,5.4,144,SE,1019.0,30.11,0.0,0.0,28,0,11.8,53.2,16.9,62.4,16.9,62.4,-1.5,29.3,10.0,6.0,1.5,4.3,6.9,0,1,0,0,241.0,7.7,74.0,1.8,25.3,25.5,2,3
258,Bela Vista,Huambo,Angola,-12.567,16.233,2026-07-13 08:00,16.1,61.0,1,4.3,6.8,126,SE,1020.0,30.11,0.0,0.0,30,0,10.8,51.4,16.1,61.0,16.1,61.0,-1.5,29.2,10.0,6.0,1.4,5.6,9.1,0,1,0,0,275.0,6.3,71.0,1.3,20.8,21.0,2,2
259,Humbe,Cunene,Angola,-16.683,14.9,2026-07-13 07:45,11.2,52.1,1,2.2,3.6,353,N,1019.0,30.1,0.0,0.0,35,0,6.5,43.7,11.7,53.0,11.2,52.1,-3.7,25.3,10.0,6.0,0.2,4.2,6.8,0,1,0,0,95.0,4.4,44.0,0.6,5.4,5.5,1,1
260,Huambo,Huambo,Angola,-12.776,15.739,2026-07-13 08:00,12.4,54.3,1,2.2,3.6,110,ESE,1025.0,30.27,0.0,0.0,62,0,12.9,55.2,15.3,59.5,15.3,59.5,-2.1,28.2,10.0,6.0,1.3,6.7,10.8,0,1,0,0,407.0,9.7,63.0,2.1,34.0,34.8,2,3
261,Genda,Benguela,Angola,-13.017,14.633,2026-07-13 08:00,19.0,66.2,1,4.7,7.6,76,ENE,1018.0,30.06,0.0,0.0,27,0,13.6,56.5,19.0,66.2,19.0,66.2,-0.5,31.2,10.0,6.0,1.2,5.5,8.9,0,0,0,0,214.0,14.1,50.0,1.2,30.7,31.5,2,3
262,Cabela,Cuanza Sul,Angola,-10.85,14.367,2026-07-13 08:00,21.6,70.9,1,2.2,3.6,334,NNW,1016.0,29.99,0.0,0.0,43,2,17.5,63.5,21.6,70.9,24.1,75.3,8.5,47.2,10.0,6.0,0.9,6.7,10.8,0,1,0,0,450.0,12.3,86.0,2.5,60.8,62.2,3,8
263,Ecunna,Huambo,Angola,-12.679,15.506,2026-07-13 08:00,12.4,54.3,1,2.2,3.6,107,ESE,1025.0,30.27,0.0,0.0,62,0,12.9,55.2,15.5,59.9,15.5,59.9,-1.9,28.5,10.0,6.0,1.3,2.3,3.8,0,1,0,0,455.0,9.7,63.0,2.1,34.0,34.8,2,3
264,Dombe,Benguela,Angola,-12.952,13.103,2026-07-13 08:00,20.5,68.9,1,2.7,4.3,26,NNE,1015.0,29.97,0.0,0.0,74,0,15.6,60.1,20.5,68.9,20.5,68.9,15.7,60.2,10.0,6.0,0.9,3.6,5.8,0,7,0,0,172.0,0.2,59.0,0.5,9.7,23.4,1,1
265,Coemba,Bie,Angola,-12.15,18.083,2026-07-13 08:00,15.9,60.6,1,3.6,5.8,159,SSE,1020.0,30.13,0.0,0.0,31,0,10.8,51.4,15.9,60.6,15.9,60.6,-1.4,29.6,10.0,6.0,1.5,4.1,6.6,0,1,0,0,204.0,6.6,68.0,1.4,25.4,25.7,2,3
266,Mange Luanda,Benguela,Angola,-12.317,14.117,2026-07-13 07:45,15.4,59.7,1,4.7,7.6,92,E,1016.0,30.01,0.0,0.0,51,0,9.9,49.8,15.4,59.7,15.4,59.7,5.4,41.7,10.0,6.0,0.2,9.9,15.9,0,2,0,0,280.0,11.3,37.0,2.7,19.8,22.7,2,2
267,Cubal Da Ganda,Benguela,Angola,-13.033,14.25,2026-07-13 07:45,16.0,60.9,1,3.8,6.1,83,E,1017.0,30.02,0.0,0.0,52,0,10.8,51.4,16.0,60.9,16.0,60.9,6.2,43.2,10.0,6.0,0.2,8.0,12.9,0,2,0,0,186.0,9.5,30.0,2.3,19.2,21.4,2,2
268,Conda,Cuanza Sul,Angola,-11.1,14.333,2026-07-13 08:00,21.6,70.9,1,2.2,3.6,334,NNW,1016.0,29.99,0.0,0.0,43,2,17.5,63.5,21.6,70.9,24.1,75.3,8.5,47.2,10.0,6.0,0.9,6.7,10.8,0,1,0,0,450.0,12.3,86.0,2.5,60.8,62.2,3,8
269,Jamba,Bie,Angola,-13.6,16.6,2026-07-13 08:00,15.8,60.4,1,2.2,3.6,72,ENE,1020.0,30.12,0.0,0.0,25,0,11.2,52.2,15.8,60.4,15.8,60.4,-3.9,25.0,10.0,6.0,1.4,2.5,4.0,0,0,0,0,171.0,7.7,70.0,1.2,20.2,20.4,2,2
270,Chinguar,Bie,Angola,-12.55,16.333,2026-07-13 08:00,16.1,61.0,1,4.3,6.8,126,SE,1020.0,30.11,0.0,0.0,30,0,10.8,51.4,16.1,61.0,16.1,61.0,-1.5,29.2,10.0,6.0,1.4,5.6,9.1,0,1,0,0,275.0,6.3,71.0,1.3,20.8,21.0,2,2
271,Chindumbo,Benguela,Angola,-11.95,14.467,2026-07-13 08:00,20.5,69.0,1,4.3,6.8,102,ESE,1017.0,30.02,0.0,0.0,35,0,15.2,59.4,20.5,69.0,20.5,69.0,4.6,40.2,10.0,6.0,1.0,5.9,9.5,0,1,0,0,332.0,18.6,62.0,3.0,66.6,69.2,4,9
272,Cela-Cungo,Cuanza Sul,Angola,-11.417,15.133,2026-07-13 08:00,17.1,62.8,1,3.4,5.4,134,SE,1019.0,30.09,0.0,0.0,32,0,12.1,53.8,17.1,62.8,17.1,62.8,0.3,32.5,10.0,6.0,1.2,4.5,7.2,0,1,0,0,510.0,15.7,66.0,2.3,64.7,67.8,3,8
273,Catumbela,Benguela,Angola,-12.431,13.547,2026-07-13 08:00,20.4,68.6,1,3.4,5.4,342,NNW,1015.0,29.98,0.0,0.0,74,0,15.3,59.5,20.4,68.6,20.4,68.6,15.5,59.9,10.0,6.0,1.0,4.4,7.1,0,7,0,0,134.0,6.5,48.0,3.6,21.1,27.4,2,2
274,Catabola,Bie,Angola,-12.15,17.283,2026-07-13 08:00,17.0,62.6,1,3.4,5.4,146,SE,1019.0,30.11,0.0,0.0,28,0,12.0,53.6,17.0,62.7,17.0,62.7,-1.4,29.5,10.0,6.0,1.5,4.2,6.7,0,1,0,0,264.0,7.7,74.0,1.8,25.3,25.5,2,3
275,Capunda,Cuanza Sul,Angola,-11.133,14.467,2026-07-13 08:00,21.6,70.9,1,2.2,3.6,334,NNW,1016.0,29.99,0.0,0.0,43,2,17.5,63.5,21.6,70.9,24.1,75.3,8.5,47.2,10.0,6.0,0.9,6.7,10.8,0,1,0,0,450.0,12.3,86.0,2.5,60.8,62.2,3,8
276,Camacuio,Namibe,Angola,-14.117,13.25,2026-07-13 08:00,19.5,67.2,1,4.7,7.6,133,SE,1017.0,30.03,0.0,0.0,23,0,14.1,57.4,19.5,67.2,19.5,67.2,-2.2,28.0,10.0,6.0,1.0,7.2,11.6,0,0,0,0,104.0,3.4,36.0,0.3,7.0,7.6,1,1
277,Cambundi-Catembo,Malanje,Angola,-10.067,17.55,2026-07-13 08:00,18.9,66.1,1,6.5,10.4,160,SSE,1018.0,30.05,0.0,0.0,29,0,12.9,55.2,19.0,66.1,19.0,66.1,0.8,33.5,10.0,6.0,1.2,8.7,14.0,0,1,0,0,577.0,14.4,92.0,2.2,51.8,53.4,3,6
278,Camacupa,Bie,Angola,-12.017,17.483,2026-07-13 08:00,15.9,60.6,1,3.6,5.8,159,SSE,1020.0,30.13,0.0,0.0,31,0,10.8,51.4,15.9,60.6,15.9,60.6,-1.4,29.6,10.0,6.0,1.5,4.1,6.6,0,1,0,0,204.0,6.6,68.0,1.4,25.4,25.7,2,3
279,Calepi,Huila,Angola,-13.867,14.5,2026-07-13 07:45,13.6,56.5,1,3.8,6.1,111,ESE,1019.0,30.1,0.0,0.0,34,0,8.9,48.0,13.6,56.5,13.6,56.5,-1.8,28.7,10.0,6.0,0.2,8.0,12.9,0,1,0,0,149.0,7.2,42.0,0.6,15.9,16.2,2,2
280,Calulo,Cuanza Sul,Angola,-10.0,14.9,2026-07-13 08:00,22.5,72.6,1,2.5,4.0,92,E,1016.0,30.0,0.0,0.0,35,0,17.8,64.0,22.5,72.6,23.9,74.9,6.3,43.3,5.7,3.0,0.8,3.0,4.9,0,1,0,0,730.0,24.9,47.0,3.4,123.4,124.8,4,10
281,Cahama,Cunene,Angola,-16.283,14.317,2026-07-13 08:00,16.9,62.4,1,5.1,8.3,63,ENE,1018.0,30.07,0.0,0.0,24,0,11.3,52.3,16.9,62.4,16.9,62.4,-3.7,25.3,10.0,6.0,1.1,8.5,13.7,0,0,0,0,106.0,2.3,49.0,0.4,3.7,3.8,1,1
282,Caala,Huambo,Angola,-12.853,15.561,2026-07-13 08:00,12.4,54.3,1,2.2,3.6,107,ESE,1025.0,30.27,0.0,0.0,62,0,12.9,55.2,15.5,59.9,15.5,59.9,-1.9,28.5,10.0,6.0,1.3,2.3,3.8,0,1,0,0,455.0,9.7,63.0,2.1,34.0,34.8,2,3
283,Bokoio,Benguela,Angola,-12.467,14.133,2026-07-13 07:45,15.4,59.7,1,4.7,7.6,92,E,1016.0,30.01,0.0,0.0,51,0,9.9,49.8,15.4,59.7,15.4,59.7,5.4,41.7,10.0,6.0,0.2,9.9,15.9,0,2,0,0,280.0,11.3,37.0,2.7,19.8,22.7,2,2
284,Benguela,Benguela,Angola,-12.578,13.407,2026-07-13 08:00,20.7,69.3,1,2.7,4.3,27,NNE,1015.0,29.97,0.0,0.0,72,0,15.9,60.6,20.7,69.3,20.7,69.3,15.5,59.8,10.0,6.0,1.0,3.5,5.6,0,6,0,0,172.0,6.5,48.0,3.6,21.1,27.4,2,2
285,Balombo,Benguela,Angola,-12.35,14.767,2026-07-13 08:00,19.7,67.4,1,4.3,6.8,103,ESE,1018.0,30.06,0.0,0.0,27,0,14.4,57.9,19.7,67.4,19.7,67.4,0.2,32.3,10.0,6.0,1.1,4.9,7.9,0,0,0,0,323.0,18.0,63.0,2.3,50.5,52.4,3,6
286,Bahia Farta,Benguela,Angola,-12.6,13.205,2026-07-13 08:00,20.5,68.9,1,2.7,4.3,26,NNE,1015.0,29.97,0.0,0.0,74,0,15.6,60.1,20.5,68.9,20.5,68.9,15.7,60.2,10.0,6.0,0.9,3.6,5.8,0,7,0,0,172.0,0.2,59.0,0.5,9.7,23.4,1,1
287,Caunde,Bie,Angola,-11.483,16.7,2026-07-13 07:45,14.6,58.3,1,3.1,5.0,185,S,1018.0,30.06,0.0,0.0,38,0,9.6,49.3,15.0,59.0,14.6,58.3,0.7,33.2,10.0,6.0,0.3,6.6,10.6,0,1,0,0,586.0,18.2,66.0,2.2,47.8,48.9,3,5
288,Carima,Uige,Angola,-7.483,17.0,2026-07-13 07:45,18.5,65.3,1,2.2,3.6,223,SW,1016.0,29.99,0.0,0.0,41,3,14.1,57.4,18.5,65.2,18.5,65.2,5.0,41.0,10.0,6.0,0.2,6.7,10.8,0,1,0,0,661.0,19.7,73.0,2.5,61.0,63.1,3,8
289,Caunda,Huambo,Angola,-8.782,13.334,2026-07-13 08:00,17.3,63.1,1,4.3,6.8,160,SSE,1015.0,29.97,0.0,0.0,94,100,17.3,63.1,18.6,65.5,18.6,65.5,16.1,61.1,3.5,2.0,0.7,5.7,9.3,0,13,0,0,291.0,5.1,82.0,6.4,15.3,20.4,1,2
290,Calanga,Lunda Norte,Angola,-8.75,17.833,2026-07-13 08:00,22.7,72.9,1,5.1,8.3,127,SE,1016.0,30.0,0.0,0.0,23,0,17.1,62.8,22.7,72.9,22.9,73.2,0.8,33.5,10.0,6.0,1.1,6.2,10.0,0,0,0,0,398.0,9.2,99.0,1.8,36.0,37.1,2,4
291,Quienha,Cuanza Sul,Angola,-10.133,15.467,2026-07-13 08:00,20.8,69.5,1,4.5,7.2,120,ESE,1017.0,30.03,0.0,0.0,29,2,15.4,59.7,20.8,69.5,20.8,69.5,2.3,36.1,9.4,5.0,1.1,5.5,8.9,0,1,0,0,613.0,16.9,70.0,2.6,75.0,77.8,4,10
292,Bela Vista,Cuanza Sul,Angola,-11.4,15.1,2026-07-13 08:00,17.1,62.8,1,3.4,5.4,134,SE,1019.0,30.09,0.0,0.0,32,0,12.1,53.8,17.1,62.8,17.1,62.8,0.3,32.5,10.0,6.0,1.2,4.5,7.2,0,1,0,0,510.0,15.7,66.0,2.3,64.7,67.8,3,8
293,Mucerengue,Malanje,Angola,-10.9,17.6,2026-07-13 07:45,14.6,58.3,1,3.1,5.0,185,S,1018.0,30.06,0.0,0.0,38,0,9.6,49.3,15.0,59.0,14.6,58.3,0.7,33.2,10.0,6.0,0.3,6.6,10.6,0,1,0,0,586.0,18.2,66.0,2.2,47.8,48.9,3,5
294,Mulenvos Baixo,Lunda Sul,Angola,-8.838,13.344,2026-07-13 08:00,17.3,63.1,1,4.3,6.8,160,SSE,1015.0,29.97,0.0,0.0,94,100,17.3,63.1,18.6,65.5,18.6,65.5,16.1,61.1,3.5,2.0,0.7,5.7,9.2,0,13,0,0,291.0,5.1,82.0,6.4,15.3,20.4,1,2
295,Golfe,Malanje,Angola,-8.866,13.261,2026-07-13 08:00,17.3,63.1,1,4.3,6.8,160,SSE,1015.0,29.97,0.0,0.0,94,100,17.3,63.1,18.6,65.5,18.6,65.5,16.1,61.1,3.5,2.0,0.7,5.7,9.2,0,13,0,0,291.0,5.1,82.0,6.4,15.3,20.4,1,2
296,Chicala,Huila,Angola,-8.81,13.219,2026-07-13 08:00,17.3,63.1,1,4.3,6.8,160,SSE,1015.0,29.97,0.0,0.0,94,100,17.3,63.1,18.6,65.5,18.6,65.5,16.1,61.1,3.5,2.0,0.7,5.7,9.3,0,13,0,0,291.0,5.1,82.0,6.4,15.3,20.4,1,2
297,Talatona,Cunene,Angola,-8.919,13.185,2026-07-13 08:00,17.3,63.1,1,4.3,6.8,160,SSE,1015.0,29.97,0.0,0.0,94,100,17.3,63.1,18.6,65.5,18.6,65.5,16.1,61.1,3.5,2.0,0.7,5.7,9.2,0,13,0,0,291.0,5.1,82.0,6.4,15.3,20.4,1,2
298,Camana,Huila,Angola,-9.067,13.367,2026-07-13 08:00,17.3,63.1,1,2.2,3.6,151,SSE,1015.0,29.97,0.0,0.0,94,100,17.3,63.1,19.4,66.9,19.4,66.9,15.9,60.6,3.5,2.0,0.7,2.6,4.2,0,10,0,0,153.0,3.1,86.0,4.1,13.6,17.9,1,2
299,Camama,Uige,Angola,-8.934,13.264,2026-07-13 08:00,17.3,63.1,1,4.3,6.8,160,SSE,1015.0,29.97,0.0,0.0,94,100,17.3,63.1,18.6,65.5,18.6,65.5,16.1,61.1,3.5,2.0,0.7,5.7,9.2,0,13,0,0,291.0,5.1,82.0,6.4,15.3,20.4,1,2
300,Muceques,Bengo,Angola,-8.817,13.283,2026-07-13 08:00,17.3,63.1,1,4.3,6.8,160,SSE,1015.0,29.97,0.0,0.0,94,100,17.3,63.1,18.6,65.5,18.6,65.5,16.1,61.1,3.5,2.0,0.7,5.7,9.3,0,13,0,0,291.0,5.1,82.0,6.4,15.3,20.4,1,2
301,Talatona,Cunene,Angola,-8.919,13.185,2026-07-13 08:00,17.3,63.1,1,4.3,6.8,160,SSE,1015.0,29.97,0.0,0.0,94,100,17.3,63.1,18.6,65.5,18.6,65.5,16.1,61.1,3.5,2.0,0.7,5.7,9.2,0,13,0,0,291.0,5.1,82.0,6.4,15.3,20.4,1,2
302,Mulemba,Cunene,Angola,-8.771,13.296,2026-07-13 08:00,17.3,63.1,1,4.3,6.8,160,SSE,1015.0,29.97,0.0,0.0,94,100,17.3,63.1,18.6,65.5,18.6,65.5,16.1,61.1,3.5,2.0,0.7,5.7,9.3,0,13,0,0,291.0,5.1,82.0,6.4,15.3,20.4,1,2
303,Benguela,Benguela,Angola,-12.578,13.407,2026-07-13 08:00,20.7,69.3,1,2.7,4.3,27,NNE,1015.0,29.97,0.0,0.0,72,0,15.9,60.6,20.7,69.3,20.7,69.3,15.5,59.8,10.0,6.0,1.0,3.5,5.6,0,6,0,0,172.0,6.5,48.0,3.6,21.1,27.4,2,2
304,Cazenga,Cuanza Norte,Angola,-8.821,13.291,2026-07-13 08:00,17.3,63.1,1,4.3,6.8,160,SSE,1015.0,29.97,0.0,0.0,94,100,17.3,63.1,18.6,65.5,18.6,65.5,16.1,61.1,3.5,2.0,0.7,5.7,9.2,0,13,0,0,291.0,5.1,82.0,6.4,15.3,20.4,1,2
305,Panguila,Bengo,Angola,-8.732,13.438,2026-07-13 08:00,17.3,63.1,1,4.3,6.8,160,SSE,1015.0,29.97,0.0,0.0,94,100,17.3,63.1,18.6,65.5,18.6,65.5,16.1,61.1,3.5,2.0,0.7,5.7,9.3,0,13,0,0,291.0,5.1,82.0,6.4,15.3,20.4,1,2
306,Alvarenga,Uige,Angola,-9.05,13.1,2026-07-13 08:00,17.3,63.1,1,4.3,6.8,160,SSE,1015.0,29.97,0.0,0.0,94,100,17.3,63.1,18.6,65.5,18.6,65.5,16.1,61.1,3.5,2.0,0.7,5.7,9.2,0,13,0,0,291.0,5.1,82.0,6.4,15.3,20.4,1,2
307,Muceques,Bengo,Angola,-8.817,13.283,2026-07-13 08:00,17.3,63.1,1,4.3,6.8,160,SSE,1015.0,29.97,0.0,0.0,94,100,17.3,63.1,18.6,65.5,18.6,65.5,16.1,61.1,3.5,2.0,0.7,5.7,9.3,0,13,0,0,291.0,5.1,82.0,6.4,15.3,20.4,1,2
308,Zarate,Buenos Aires,Argentina,-34.092,-59.035,2026-07-13 04:00,2.4,36.3,0,4.3,6.8,25,NNE,1024.0,30.24,0.0,0.0,100,0,0.4,32.8,2.6,36.6,4.2,39.6,2.2,36.0,0.3,0.0,0.0,8.9,14.4,0,12,0,0,97.0,11.0,30.0,7.3,6.2,7.4,1,1
309,Wanda,Misiones,Argentina,-25.967,-54.583,2026-07-13 04:00,8.3,46.9,0,2.7,4.3,172,S,1022.0,30.18,0.0,0.0,93,75,8.1,46.5,6.6,43.8,7.0,44.5,6.8,44.2,5.0,3.0,0.0,5.3,8.6,0,43,0,0,91.0,2.8,29.0,1.0,7.5,7.6,1,1
310,Villa Ortuzar,Distrito Federal,Argentina,-34.583,-58.483,2026-07-13 04:00,7.0,44.6,0,4.7,7.6,30,NNE,1024.0,30.24,0.0,0.0,81,25,5.6,42.1,6.2,43.2,7.5,45.6,3.7,38.7,9.0,5.0,0.0,7.9,12.7,0,8,0,0,709.0,42.7,1.0,10.6,14.9,15.8,1,2
311,Villa Ocampo,Santa Fe,Argentina,-28.467,-59.367,2026-07-13 04:00,7.1,44.9,0,4.7,7.6,96,E,1024.0,30.23,0.0,0.0,88,0,5.8,42.4,5.8,42.4,7.2,44.9,5.3,41.6,10.0,6.0,0.0,9.9,15.9,0,13,0,0,78.0,2.8,31.0,0.7,3.5,3.8,1,1
312,Luis J. Garcia,Distrito Federal,Argentina,-34.683,-58.467,2026-07-13 04:00,7.0,44.6,0,3.8,6.1,31,NNE,1024.0,30.24,0.0,0.0,81,25,6.0,42.8,6.0,42.9,7.0,44.7,3.3,37.9,9.0,5.0,0.0,6.7,10.8,0,8,0,0,1023.0,42.7,1.0,10.6,14.9,15.8,1,2
313,Villaguay,Entre Rios,Argentina,-31.85,-59.017,2026-07-13 04:00,4.9,40.7,0,5.4,8.6,50,NE,1024.0,30.24,0.0,0.0,91,0,2.8,37.0,2.8,37.0,4.9,40.7,3.6,38.4,10.0,6.0,0.0,11.3,18.1,0,14,0,0,91.0,4.0,27.0,2.1,3.3,3.7,1,1
314,Villa Gesell,Buenos Aires,Argentina,-37.25,-56.917,2026-07-13 03:45,5.2,41.4,0,2.2,3.6,300,WNW,1024.0,30.24,0.0,0.0,82,5,0.8,33.4,5.2,41.4,5.2,41.4,2.5,36.4,10.0,6.0,0.0,2.5,4.0,0,11,0,0,95.0,1.3,57.0,0.5,5.0,8.2,1,1
315,C. De Mayo,Buenos Aires,Argentina,-34.5,-58.683,2026-07-13 03:45,7.0,44.6,0,3.6,5.8,44,NE,1024.0,30.24,0.0,0.0,81,25,6.1,43.0,6.6,43.9,7.4,45.4,3.4,38.0,9.0,5.0,0.0,6.2,10.0,0,8,0,0,919.0,30.5,13.0,15.8,15.9,16.9,2,2
316,Diamante,Buenos Aires,Argentina,-34.667,-58.417,2026-07-13 04:00,7.0,44.6,0,4.7,7.6,30,NNE,1024.0,30.24,0.0,0.0,81,25,5.6,42.1,6.2,43.2,7.5,45.6,3.7,38.7,9.0,5.0,0.0,7.9,12.7,0,8,0,0,709.0,42.7,1.0,10.6,14.9,15.8,1,2
317,Tristan Suarez,Buenos Aires,Argentina,-34.883,-58.567,2026-07-13 04:00,7.1,44.8,0,2.9,4.7,40,NE,1024.0,30.24,0.0,0.0,81,25,6.6,43.8,4.6,40.3,5.3,41.6,2.0,35.6,9.0,5.0,0.0,5.8,9.3,0,9,0,0,566.0,42.7,1.0,10.6,14.9,15.8,1,2
318,Tortuguitas,Buenos Aires,Argentina,-34.467,-58.767,2026-07-13 04:00,7.1,44.8,0,3.6,5.8,13,NNE,1024.0,30.24,0.0,0.0,81,25,6.2,43.2,5.7,42.2,6.6,43.9,2.9,37.2,9.0,5.0,0.0,6.4,10.3,0,8,0,0,536.0,27.1,16.0,12.9,12.3,13.2,1,2
319,Tigre,Buenos Aires,Argentina,-34.426,-58.597,2026-07-13 03:45,7.0,44.6,0,3.6,5.8,44,NE,1024.0,30.24,0.0,0.0,81,25,6.1,43.0,6.6,43.9,7.4,45.4,3.4,38.0,9.0,5.0,0.0,6.2,10.0,0,8,0,0,919.0,30.5,13.0,15.8,15.9,16.9,2,2
320,Tandil,Buenos Aires,Argentina,-37.317,-59.15,2026-07-13 04:00,1.2,34.2,0,5.6,9.0,359,N,1024.0,30.23,0.0,0.0,94,8,-1.6,29.1,-1.6,29.2,1.2,34.2,0.3,32.6,10.0,6.0,0.0,11.7,18.9,0,16,0,19,68.0,3.1,30.0,0.5,3.7,5.0,1,1
321,Villa C. Colon,Buenos Aires,Argentina,-34.683,-58.333,2026-07-13 03:45,7.0,44.6,0,4.3,6.8,52,NE,1024.0,30.24,0.0,0.0,81,25,5.8,42.4,6.8,44.2,7.9,46.2,3.1,37.7,9.0,5.0,0.0,6.8,10.9,0,7,0,0,512.0,42.0,0.0,11.4,16.7,17.6,2,2
322,Alejandro Korn,Buenos Aires,Argentina,-34.983,-58.383,2026-07-13 04:00,0.3,32.5,0,3.8,6.1,36,NE,1024.0,30.24,0.0,0.0,100,0,-1.7,28.9,2.2,36.0,3.7,38.7,1.2,34.1,8.0,4.0,0.0,8.0,12.9,0,11,0,11,153.0,20.2,13.0,3.8,7.5,8.6,1,1
323,San Vicente,Misiones,Argentina,-26.617,-54.133,2026-07-13 04:00,5.4,41.7,0,3.4,5.4,142,SE,1023.0,30.2,0.0,0.0,100,100,4.4,39.9,4.3,39.8,5.4,41.7,5.3,41.6,0.0,0.0,0.0,5.8,9.3,0,43,0,0,116.0,1.8,36.0,0.8,5.4,5.4,1,1
324,Santo Tome,Corrientes,Argentina,-28.55,-56.05,2026-07-13 04:00,6.7,44.1,0,3.1,5.0,125,SE,1023.0,30.22,0.0,0.0,90,0,6.0,42.8,6.0,42.8,6.7,44.0,5.1,41.2,10.0,6.0,0.0,6.6,10.6,0,13,0,0,87.0,2.0,32.0,0.6,2.4,2.7,1,1
325,Saenz Pena,Buenos Aires,Argentina,-34.6,-58.533,2026-07-13 04:00,7.0,44.6,0,3.8,6.1,31,NNE,1024.0,30.24,0.0,0.0,81,25,6.0,42.8,6.0,42.9,7.0,44.7,3.3,37.9,9.0,5.0,0.0,6.7,10.8,0,8,0,0,1023.0,42.7,1.0,10.6,14.9,15.8,1,2
326,Balneario Santa Teresa,Buenos Aires,Argentina,-36.533,-56.683,2026-07-13 04:00,4.6,40.2,0,2.2,3.6,229,SW,1024.0,30.23,0.0,0.0,87,7,0.0,32.0,4.6,40.2,4.6,40.2,2.6,36.6,10.0,6.0,0.0,3.5,5.6,0,13,0,0,80.0,0.7,58.0,0.4,4.5,7.5,1,1
327,Santa Elena,Entre Rios,Argentina,-30.95,-59.8,2026-07-13 04:00,6.1,43.0,0,6.5,10.4,71,ENE,1024.0,30.23,0.0,0.0,91,0,3.9,39.0,3.9,39.0,6.1,43.0,4.7,40.4,10.0,6.0,0.0,13.6,21.8,0,14,0,0,67.0,2.7,28.0,1.4,2.8,3.1,1,1
328,Barrio Felix U Camet,Buenos Aires,Argentina,-37.9,-57.517,2026-07-13 04:00,-0.8,30.6,0,6.5,10.4,326,NNW,1023.0,30.21,0.0,0.0,100,0,-4.4,24.1,0.9,33.5,3.6,38.4,1.4,34.5,10.0,6.0,0.0,12.3,19.9,0,12,0,11,79.0,3.2,44.0,1.1,3.7,5.4,1,1
329,San Pedro,Buenos Aires,Argentina,-33.671,-59.683,2026-07-13 04:00,4.3,39.7,0,4.5,7.2,36,NE,1024.0,30.23,0.0,0.0,89,0,2.5,36.5,2.5,36.5,4.2,39.7,2.7,36.8,10.0,6.0,0.0,9.4,15.1,0,13,0,0,79.0,6.2,34.0,4.6,5.1,6.0,1,1
330,San Vicente,Misiones,Argentina,-26.617,-54.133,2026-07-13 04:00,5.4,41.7,0,3.4,5.4,142,SE,1023.0,30.2,0.0,0.0,100,100,4.4,39.9,4.3,39.8,5.4,41.7,5.3,41.6,0.0,0.0,0.0,5.8,9.3,0,43,0,0,116.0,1.8,36.0,0.8,5.4,5.4,1,1
331,San M. Del Monte,Buenos Aires,Argentina,-35.45,-58.8,2026-07-13 04:00,3.4,38.2,0,5.8,9.4,22,NNE,1024.0,30.23,0.0,0.0,82,8,0.9,33.6,0.9,33.7,3.4,38.2,0.7,33.2,10.0,6.0,0.0,12.2,19.7,0,11,0,10,81.0,24.1,12.0,4.9,6.8,7.5,1,1
332,San Luis Del Palmar,Corrientes,Argentina,-27.517,-58.567,2026-07-13 04:00,7.2,45.0,0,4.5,7.2,123,ESE,1024.0,30.24,0.0,0.0,93,0,5.9,42.7,6.6,43.8,7.8,46.0,5.8,42.4,10.0,6.0,0.0,9.1,14.6,0,12,0,0,75.0,5.4,29.0,1.3,4.2,4.4,1,1
333,San Lorenzo,Corrientes,Argentina,-28.133,-58.767,2026-07-13 03:45,7.4,45.4,0,4.9,7.9,122,ESE,1024.0,30.24,0.0,0.0,86,0,6.0,42.8,6.0,42.9,7.4,45.4,5.2,41.5,10.0,6.0,0.0,10.2,16.5,0,12,0,0,74.0,1.9,32.0,0.6,3.4,3.7,1,1
334,San Justo,Buenos Aires,Argentina,-34.683,-58.552,2026-07-13 03:45,7.0,44.6,0,2.9,4.7,54,NE,1024.0,30.24,0.0,0.0,81,25,6.5,43.6,6.2,43.2,6.8,44.2,2.7,36.8,9.0,5.0,0.0,5.1,8.3,0,8,0,0,904.0,42.0,0.0,11.4,16.7,17.6,2,2
335,San Javier,Santa Fe,Argentina,-30.583,-59.95,2026-07-13 04:00,6.1,43.0,0,6.5,10.4,71,ENE,1024.0,30.23,0.0,0.0,91,0,3.9,39.0,3.9,39.0,6.1,43.0,4.7,40.4,10.0,6.0,0.0,13.6,21.8,0,14,0,0,67.0,2.7,28.0,1.4,2.8,3.1,1,1
336,Punta Chica,Buenos Aires,Argentina,-34.467,-58.517,2026-07-13 03:45,7.0,44.6,0,3.6,5.8,44,NE,1024.0,30.24,0.0,0.0,81,25,6.1,43.0,6.6,43.9,7.4,45.4,3.4,38.0,9.0,5.0,0.0,6.2,10.0,0,8,0,0,919.0,30.5,13.0,15.8,15.9,16.9,2,2
337,San Antonio De Padua,Buenos Aires,Argentina,-34.667,-58.7,2026-07-13 03:45,7.0,44.6,0,2.2,3.6,38,NE,1024.0,30.24,0.0,0.0,81,25,6.9,44.5,5.9,42.5,6.0,42.9,2.1,35.7,9.0,5.0,0.0,4.2,6.8,0,8,0,0,833.0,41.6,0.0,15.5,19.4,20.4,2,2
338,San A. De Areco,Buenos Aires,Argentina,-34.25,-59.467,2026-07-13 04:00,3.6,38.6,0,6.7,10.8,29,NNE,1024.0,30.23,0.0,0.0,82,0,0.9,33.6,0.9,33.5,3.6,38.6,0.9,33.7,10.0,6.0,0.0,14.1,22.7,0,10,0,10,140.0,9.5,25.0,3.9,6.0,6.9,1,1
339,Saladillo,Buenos Aires,Argentina,-35.639,-59.779,2026-07-13 04:00,3.4,38.1,0,6.5,10.4,21,NNE,1023.0,30.22,0.0,0.0,81,17,0.6,33.1,0.6,33.1,3.4,38.1,0.4,32.8,10.0,6.0,0.0,13.6,21.9,0,11,0,10,77.0,4.8,28.0,1.3,2.3,2.8,1,1
340,Saladas,Corrientes,Argentina,-28.25,-58.633,2026-07-13 03:45,7.4,45.4,0,4.9,7.9,122,ESE,1024.0,30.24,0.0,0.0,86,0,6.0,42.8,6.0,42.9,7.4,45.4,5.2,41.5,10.0,6.0,0.0,10.2,16.5,0,12,0,0,74.0,1.9,32.0,0.6,3.4,3.7,1,1
341,Centro,Distrito Federal,Argentina,-34.6,-58.383,2026-07-13 03:45,7.0,44.6,0,5.1,8.3,51,NE,1024.0,30.24,0.0,0.0,81,25,5.4,41.8,6.7,44.0,8.1,46.5,3.8,38.8,9.0,5.0,0.0,8.2,13.1,0,7,0,0,780.0,42.0,0.0,11.4,16.7,17.6,2,2
342,Resistencia,Chaco,Argentina,-27.45,-58.983,2026-07-13 04:00,6.1,43.0,0,4.3,6.8,122,ESE,1024.0,30.24,0.0,0.0,93,0,4.7,40.5,7.2,45.0,8.2,46.8,6.0,42.7,5.0,3.0,0.0,8.4,13.5,0,11,0,0,84.0,5.4,29.0,1.3,4.2,4.4,1,1
343,R. De Escalada,Buenos Aires,Argentina,-34.733,-58.383,2026-07-13 03:45,7.0,44.6,0,2.7,4.3,57,ENE,1024.0,30.24,0.0,0.0,81,25,6.6,43.9,6.2,43.1,6.6,43.9,2.4,36.3,9.0,5.0,0.0,4.8,7.7,0,7,0,0,448.0,42.0,0.0,11.4,16.7,17.6,2,2
344,Reconquista,Santa Fe,Argentina,-29.15,-59.65,2026-07-13 04:00,4.0,39.2,0,5.4,8.6,91,E,1024.0,30.24,0.0,0.0,93,0,1.8,35.2,5.2,41.3,6.8,44.3,5.1,41.1,0.8,0.0,0.0,11.3,18.1,0,13,0,0,81.0,3.1,32.0,0.7,4.1,4.6,1,1
345,Quilmes,Buenos Aires,Argentina,-34.72,-58.269,2026-07-13 03:45,7.0,44.6,0,4.3,6.8,52,NE,1024.0,30.24,0.0,0.0,81,25,5.8,42.4,6.8,44.2,7.9,46.2,3.1,37.7,9.0,5.0,0.0,6.8,10.9,0,7,0,0,512.0,42.0,0.0,11.4,16.7,17.6,2,2
346,Puerto Rico,Misiones,Argentina,-26.8,-55.033,2026-07-13 04:00,5.7,42.2,0,2.2,3.6,171,S,1023.0,30.21,0.0,0.0,99,100,1.0,33.8,5.6,42.2,5.7,42.2,5.5,42.0,0.0,0.0,0.0,4.1,6.6,0,43,0,0,106.0,2.0,35.0,0.8,5.5,5.6,1,1
347,Tres Fronteras,Alto Parana,Paraguay,-25.6,-54.583,2026-07-13 03:45,8.2,46.8,0,3.6,5.8,176,S,1021.0,30.15,0.0,0.0,100,0,7.5,45.4,6.4,43.4,7.2,45.0,6.6,43.9,10.0,6.0,0.0,7.3,11.8,0,21,0,0,103.0,2.6,31.0,1.0,7.3,7.4,1,1
348,Puerto Helvecia,Misiones,Argentina,-26.05,-54.633,2026-07-13 04:00,8.3,46.9,0,2.2,3.6,179,S,1022.0,30.18,0.0,0.0,93,75,8.4,47.0,6.2,43.1,6.3,43.4,6.2,43.1,5.0,3.0,0.0,4.5,7.2,0,43,0,0,99.0,2.9,32.0,0.9,7.1,7.2,1,1
349,Villa Dolores,Misiones,Argentina,-27.4,-55.9,2026-07-13 03:45,7.1,44.8,0,3.8,6.1,136,SE,1024.0,30.24,0.0,0.0,93,0,6.1,43.0,4.7,40.4,5.9,42.5,5.4,41.7,10.0,6.0,0.0,8.0,12.9,0,21,0,0,97.0,3.2,31.0,1.0,5.9,6.0,1,1
350,Pontevedra,Buenos Aires,Argentina,-34.752,-58.712,2026-07-13 03:45,7.0,44.6,0,2.2,3.6,38,NE,1024.0,30.24,0.0,0.0,81,25,6.9,44.5,5.9,42.5,6.0,42.9,2.1,35.7,9.0,5.0,0.0,4.2,6.8,0,8,0,0,833.0,41.6,0.0,15.5,19.4,20.4,2,2
351,Pirane,Formosa,Argentina,-25.717,-59.1,2026-07-13 04:00,7.5,45.4,0,4.5,7.2,139,SE,1023.0,30.21,0.0,0.0,89,3,6.2,43.2,6.2,43.2,7.4,45.4,5.8,42.5,10.0,6.0,0.0,9.4,15.1,0,13,0,0,85.0,3.1,29.0,0.5,4.4,4.4,1,1
352,Mar De Ostende,Buenos Aires,Argentina,-37.117,-56.867,2026-07-13 03:45,5.2,41.4,0,2.2,3.6,300,WNW,1024.0,30.24,0.0,0.0,82,5,0.8,33.4,5.2,41.4,5.2,41.4,2.5,36.4,10.0,6.0,0.0,2.5,4.0,0,11,0,0,95.0,1.3,57.0,0.5,5.0,8.2,1,1
353,Mariano Moreno,Buenos Aires,Argentina,-34.463,-58.929,2026-07-13 04:00,2.2,36.0,0,4.5,7.2,10,N,1024.0,30.24,0.0,0.0,100,0,0.1,32.2,3.4,38.0,5.0,41.0,2.2,35.9,0.3,0.0,0.0,9.2,14.8,0,10,0,0,187.0,27.1,16.0,12.9,12.3,13.2,1,2
354,Paso De Los Libres,Corrientes,Argentina,-29.717,-57.083,2026-07-13 04:00,5.5,41.9,0,5.1,8.3,139,SE,1024.0,30.24,0.0,0.0,90,0,3.7,38.7,3.7,38.6,5.5,41.9,4.1,39.3,10.0,6.0,0.0,10.8,17.4,0,14,0,0,74.0,2.0,36.0,0.5,1.4,1.7,1,1
355,Obera,Misiones,Argentina,-27.483,-55.133,2026-07-13 04:00,5.3,41.5,0,2.2,3.6,127,SE,1023.0,30.22,0.0,0.0,99,100,0.6,33.1,5.0,41.1,5.3,41.5,5.1,41.2,0.0,0.0,0.0,4.4,7.0,0,43,0,0,85.0,2.4,34.0,0.8,3.7,3.9,1,1
356,Nogoya,Entre Rios,Argentina,-32.4,-59.799,2026-07-13 03:45,4.2,39.6,0,6.5,10.4,46,NE,1025.0,30.27,0.0,0.0,93,0,1.6,34.9,2.8,37.1,5.2,41.4,3.3,37.9,10.0,6.0,0.0,13.6,21.9,0,12,0,0,85.0,3.3,30.0,1.9,2.7,3.2,1,1
357,Necochea,Buenos Aires,Argentina,-38.55,-58.75,2026-07-13 03:45,3.4,38.2,0,8.7,14.0,10,N,1023.0,30.2,0.0,0.0,87,10,-0.0,32.0,-0.0,32.0,3.4,38.2,1.5,34.7,10.0,6.0,0.0,16.8,27.1,0,13,0,11,70.0,1.6,38.0,0.6,2.2,3.0,1,1
358,Navarro,Buenos Aires,Argentina,-35.017,-59.267,2026-07-13 04:00,3.6,38.5,0,6.0,9.7,24,NNE,1024.0,30.23,0.0,0.0,81,1,1.1,34.0,1.1,34.0,3.6,38.6,0.6,33.2,10.0,6.0,0.0,12.7,20.4,0,10,0,10,154.0,24.1,12.0,4.9,6.8,7.5,1,1
359,Muniz,Buenos Aires,Argentina,-34.55,-58.7,2026-07-13 04:00,7.1,44.8,0,3.6,5.8,13,NNE,1024.0,30.24,0.0,0.0,81,25,6.2,43.2,5.7,42.2,6.6,43.9,2.9,37.2,9.0,5.0,0.0,6.4,10.3,0,8,0,0,536.0,27.1,16.0,12.9,12.3,13.2,1,2
360,6 De Septiembre,Buenos Aires,Argentina,-34.643,-58.618,2026-07-13 03:45,7.0,44.6,0,2.9,4.7,54,NE,1024.0,30.24,0.0,0.0,81,25,6.5,43.6,6.2,43.2,6.8,44.2,2.7,36.8,9.0,5.0,0.0,5.1,8.3,0,8,0,0,904.0,42.0,0.0,11.4,16.7,17.6,2,2
361,Monte Chingolo,Buenos Aires,Argentina,-34.717,-58.333,2026-07-13 03:45,7.0,44.6,0,4.3,6.8,52,NE,1024.0,30.24,0.0,0.0,81,25,5.8,42.4,6.8,44.2,7.9,46.2,3.1,37.7,9.0,5.0,0.0,6.8,10.9,0,7,0,0,512.0,42.0,0.0,11.4,16.7,17.6,2,2
362,Monte Caseros,Corrientes,Argentina,-30.25,-57.65,2026-07-13 04:00,5.0,41.0,0,4.0,6.5,119,ESE,1024.0,30.24,0.0,0.0,91,1,3.6,38.5,3.6,38.4,5.0,41.0,3.6,38.5,10.0,6.0,0.0,8.5,13.6,0,14,0,0,77.0,1.0,43.0,0.4,1.3,1.6,1,1
363,Montecarlo,Misiones,Argentina,-26.567,-54.783,2026-07-13 04:00,8.3,46.9,0,2.2,3.6,179,S,1022.0,30.18,0.0,0.0,93,75,8.4,47.0,6.2,43.1,6.3,43.4,6.2,43.1,5.0,3.0,0.0,4.5,7.2,0,43,0,0,99.0,2.9,32.0,0.9,7.1,7.2,1,1
364,General Alvarado,Buenos Aires,Argentina,-38.267,-57.85,2026-07-13 04:00,-0.8,30.6,0,8.5,13.7,345,NNW,1023.0,30.21,0.0,0.0,100,0,-5.1,22.7,0.6,33.1,3.9,39.0,1.1,34.0,10.0,6.0,0.0,15.9,25.6,0,12,0,12,68.0,2.2,46.0,0.8,3.0,4.3,1,1
365,Merlo,Buenos Aires,Argentina,-34.67,-58.753,2026-07-13 03:45,7.0,44.6,0,2.2,3.6,38,NE,1024.0,30.24,0.0,0.0,81,25,6.9,44.5,5.9,42.5,6.0,42.9,2.1,35.7,9.0,5.0,0.0,4.2,6.8,0,8,0,0,833.0,41.6,0.0,15.5,19.4,20.4,2,2
366,Mercedes,Buenos Aires,Argentina,-34.654,-59.434,2026-07-13 04:00,4.0,39.2,0,5.6,9.0,17,NNE,1024.0,30.23,0.0,0.0,83,0,1.7,35.1,1.7,35.0,4.0,39.2,1.4,34.4,10.0,6.0,0.0,11.7,18.9,0,11,0,11,491.0,26.7,14.0,11.5,11.1,12.4,1,1
367,Mercedes,Corrientes,Argentina,-29.2,-58.083,2026-07-13 04:00,6.0,42.9,0,6.3,10.1,116,ESE,1024.0,30.24,0.0,0.0,93,2,3.9,39.0,3.9,39.0,6.1,42.9,4.9,40.9,10.0,6.0,0.0,13.2,21.2,0,15,0,0,66.0,2.2,30.0,1.1,2.0,2.3,1,1
368,Villa Luzuriaga,Buenos Aires,Argentina,-34.65,-58.583,2026-07-13 03:45,7.0,44.6,0,2.9,4.7,54,NE,1024.0,30.24,0.0,0.0,81,25,6.5,43.6,6.2,43.2,6.8,44.2,2.7,36.8,9.0,5.0,0.0,5.1,8.3,0,8,0,0,904.0,42.0,0.0,11.4,16.7,17.6,2,2
369,Mar Del Tuyu,Buenos Aires,Argentina,-36.55,-56.683,2026-07-13 04:00,4.6,40.2,0,2.2,3.6,229,SW,1024.0,30.23,0.0,0.0,87,7,0.0,32.0,4.6,40.2,4.6,40.2,2.6,36.6,10.0,6.0,0.0,3.5,5.6,0,13,0,0,80.0,0.7,58.0,0.4,4.5,7.5,1,1
370,Mar Del Plata,Buenos Aires,Argentina,-38.0,-57.55,2026-07-13 04:00,-0.8,30.6,0,7.2,11.5,326,NW,1023.0,30.21,0.0,0.0,100,0,-4.7,23.6,1.7,35.1,4.5,40.0,1.9,35.4,10.0,6.0,0.0,12.4,19.9,0,11,0,0,114.0,3.2,44.0,1.1,3.7,5.4,1,1
371,Balneario Mar De Ajo,Buenos Aires,Argentina,-36.717,-56.667,2026-07-13 04:00,4.6,40.2,0,2.2,3.6,229,SW,1024.0,30.23,0.0,0.0,87,7,0.0,32.0,4.6,40.2,4.6,40.2,2.6,36.6,10.0,6.0,0.0,3.5,5.6,0,13,0,0,80.0,0.7,58.0,0.4,4.5,7.5,1,1
372,Magdalena,Buenos Aires,Argentina,-35.067,-57.533,2026-07-13 04:00,5.1,41.2,0,2.2,3.6,29,NNE,1025.0,30.27,0.0,0.0,82,0,0.4,32.7,4.8,40.7,5.1,41.2,2.3,36.1,0.5,0.0,0.0,4.4,7.1,0,10,0,0,78.0,14.8,31.0,2.7,9.5,10.6,1,1
373,Lujan,Buenos Aires,Argentina,-34.57,-59.105,2026-07-13 04:00,4.0,39.2,0,5.6,9.0,17,NNE,1024.0,30.23,0.0,0.0,83,0,1.7,35.1,1.7,35.0,4.0,39.2,1.4,34.4,10.0,6.0,0.0,11.7,18.9,0,11,0,11,491.0,26.7,14.0,11.5,11.1,12.4,1,1
374,C. De Mayo,Buenos Aires,Argentina,-34.5,-58.683,2026-07-13 03:45,7.0,44.6,0,3.6,5.8,44,NE,1024.0,30.24,0.0,0.0,81,25,6.1,43.0,6.6,43.9,7.4,45.4,3.4,38.0,9.0,5.0,0.0,6.2,10.0,0,8,0,0,919.0,30.5,13.0,15.8,15.9,16.9,2,2
375,Banfield,Buenos Aires,Argentina,-34.75,-58.4,2026-07-13 03:45,7.0,44.6,0,2.7,4.3,57,ENE,1024.0,30.24,0.0,0.0,81,25,6.6,43.9,6.2,43.1,6.6,43.9,2.4,36.3,9.0,5.0,0.0,4.8,7.7,0,7,0,0,448.0,42.0,0.0,11.4,16.7,17.6,2,2
376,Lobos,Buenos Aires,Argentina,-35.185,-59.095,2026-07-13 04:00,3.4,38.2,0,5.8,9.4,22,NNE,1024.0,30.23,0.0,0.0,82,8,0.9,33.6,0.9,33.7,3.4,38.2,0.7,33.2,10.0,6.0,0.0,12.2,19.7,0,11,0,10,81.0,24.1,12.0,4.9,6.8,7.5,1,1
377,Leandro N. Alem,Misiones,Argentina,-27.6,-55.317,2026-07-13 04:00,5.3,41.5,0,2.2,3.6,127,SE,1023.0,30.22,0.0,0.0,99,100,0.6,33.1,5.0,41.1,5.3,41.5,5.1,41.2,0.0,0.0,0.0,4.4,7.0,0,43,0,0,85.0,2.4,34.0,0.8,3.7,3.9,1,1
378,Coronel Boerr,Buenos Aires,Argentina,-35.95,-59.067,2026-07-13 03:45,3.3,37.9,0,5.6,9.0,24,NNE,1024.0,30.24,0.0,0.0,85,4,0.8,33.4,0.8,33.5,3.3,37.9,1.1,33.9,10.0,6.0,0.0,11.7,18.9,0,12,0,10,71.0,1.4,31.0,0.3,2.1,3.0,1,1
379,La Plata,Buenos Aires,Argentina,-34.931,-57.949,2026-07-13 04:00,7.1,44.8,0,2.9,4.7,26,NNE,1024.0,30.24,0.0,0.0,81,25,6.6,43.8,5.1,41.2,5.8,42.5,2.6,36.8,9.0,5.0,0.0,5.4,8.7,0,9,0,0,109.0,14.8,31.0,2.7,9.5,10.6,1,1
380,La Paz,Entre Rios,Argentina,-30.75,-59.65,2026-07-13 04:00,6.1,43.0,0,6.5,10.4,71,ENE,1024.0,30.23,0.0,0.0,91,0,3.9,39.0,3.9,39.0,6.1,43.0,4.7,40.4,10.0,6.0,0.0,13.6,21.8,0,14,0,0,67.0,2.7,28.0,1.4,2.8,3.1,1,1
381,Gerli,Buenos Aires,Argentina,-34.7,-58.383,2026-07-13 03:45,7.0,44.6,0,2.7,4.3,57,ENE,1024.0,30.24,0.0,0.0,81,25,6.6,43.9,6.2,43.1,6.6,43.9,2.4,36.3,9.0,5.0,0.0,4.8,7.7,0,7,0,0,448.0,42.0,0.0,11.4,16.7,17.6,2,2
382,Jardin America,Misiones,Argentina,-27.05,-55.233,2026-07-13 03:45,6.2,43.2,0,2.2,3.6,168,SSE,1023.0,30.21,0.0,0.0,99,100,1.6,34.9,6.2,43.2,6.2,43.2,6.0,42.9,0.0,0.0,0.0,4.0,6.5,0,43,0,0,131.0,3.2,32.0,1.0,7.5,7.6,1,1
383,Ituzaingo,Corrientes,Argentina,-27.6,-56.683,2026-07-13 04:00,7.0,44.7,0,4.9,7.9,130,SE,1023.0,30.22,0.0,0.0,92,3,5.5,41.9,5.6,42.0,7.0,44.7,5.9,42.6,10.0,6.0,0.0,9.7,15.7,0,15,0,0,73.0,1.5,35.0,0.7,3.1,3.2,1,1
384,I. Casanova,Buenos Aires,Argentina,-34.7,-58.583,2026-07-13 03:45,7.0,44.6,0,2.9,4.7,54,NE,1024.0,30.24,0.0,0.0,81,25,6.5,43.6,6.2,43.2,6.8,44.2,2.7,36.8,9.0,5.0,0.0,5.1,8.3,0,8,0,0,904.0,42.0,0.0,11.4,16.7,17.6,2,2
385,28 De Septiembre,Buenos Aires,Argentina,-34.6,-58.633,2026-07-13 04:00,7.1,44.8,0,3.6,5.8,19,NNE,1024.0,30.24,0.0,0.0,81,25,6.2,43.2,5.7,42.3,6.7,44.0,2.9,37.3,9.0,5.0,0.0,6.4,10.3,0,8,0,0,755.0,27.1,16.0,12.9,12.3,13.2,1,2
386,Gualeguaychu,Entre Rios,Argentina,-33.01,-58.514,2026-07-13 03:45,4.1,39.4,0,5.8,9.4,41,NE,1024.0,30.25,0.0,0.0,92,1,1.7,35.1,1.7,35.1,4.1,39.4,2.9,37.3,10.0,6.0,0.0,12.2,19.7,0,14,0,0,117.0,5.4,36.0,3.6,5.0,5.8,1,1
387,Gualeguay,Entre Rios,Argentina,-33.144,-59.329,2026-07-13 03:45,4.5,40.1,0,6.3,10.1,35,NE,1024.0,30.25,0.0,0.0,91,0,2.0,35.6,2.0,35.6,4.5,40.1,3.2,37.7,10.0,6.0,0.0,13.2,21.2,0,14,0,0,102.0,6.6,30.0,4.8,5.0,5.8,1,1
388,Goya,Corrientes,Argentina,-29.133,-59.267,2026-07-13 04:00,4.0,39.2,0,4.3,6.8,95,E,1024.0,30.24,0.0,0.0,93,0,2.3,36.1,4.9,40.9,6.3,43.3,4.8,40.7,0.8,0.0,0.0,8.9,14.4,0,13,0,0,76.0,2.1,29.0,0.8,2.7,3.1,1,1
389,Gobernador Ingeniero Valentin Virasoro,Corrientes,Argentina,-28.05,-56.033,2026-07-13 04:00,6.1,42.9,0,3.1,5.0,113,ESE,1024.0,30.22,0.0,0.0,95,2,5.3,41.5,5.3,41.5,6.1,42.9,5.3,41.6,2.0,1.0,0.0,6.6,10.5,0,19,0,0,81.0,2.3,29.0,0.6,2.8,2.9,1,1
390,El Talar De Pacheco,Buenos Aires,Argentina,-34.45,-58.65,2026-07-13 03:45,7.0,44.6,0,3.6,5.8,44,NE,1024.0,30.24,0.0,0.0,81,25,6.1,43.0,6.6,43.9,7.4,45.4,3.4,38.0,9.0,5.0,0.0,6.2,10.0,0,8,0,0,919.0,30.5,13.0,15.8,15.9,16.9,2,2
391,General J. Madariaga,Buenos Aires,Argentina,-37.0,-57.15,2026-07-13 04:00,2.9,37.3,0,2.2,3.6,10,N,1024.0,30.23,0.0,0.0,88,6,-1.8,28.8,2.4,36.3,2.9,37.3,1.1,34.0,10.0,6.0,0.0,4.7,7.6,0,13,0,9,76.0,2.2,42.0,0.6,4.1,6.5,1,1
392,Colonia Zapallar,Chaco,Argentina,-26.55,-59.35,2026-07-13 03:45,7.5,45.5,0,3.8,6.1,133,SE,1024.0,30.23,0.0,0.0,89,0,6.5,43.7,6.5,43.8,7.5,45.5,5.8,42.5,10.0,6.0,0.0,8.0,12.9,0,13,0,0,95.0,4.8,30.0,0.9,5.1,5.2,1,1
393,General Belgrano,Buenos Aires,Argentina,-35.767,-58.5,2026-07-13 03:45,3.4,38.0,0,3.8,6.1,30,NNE,1024.0,30.25,0.0,0.0,87,1,1.8,35.2,1.8,35.2,3.4,38.0,1.4,34.4,10.0,6.0,0.0,8.0,12.9,0,12,0,10,80.0,4.8,26.0,0.5,3.3,4.6,1,1
394,Garupa,Misiones,Argentina,-27.483,-55.833,2026-07-13 04:00,7.2,45.0,0,3.6,5.8,128,SE,1024.0,30.24,0.0,0.0,93,0,6.3,43.4,4.4,39.8,5.5,41.9,5.0,41.0,10.0,6.0,0.0,7.5,12.1,0,21,0,0,97.0,3.3,30.0,1.0,5.6,5.6,1,1
395,Formosa,Formosa,Argentina,-26.183,-58.183,2026-07-13 03:45,7.3,45.1,0,4.7,7.6,146,SSE,1023.0,30.21,0.0,0.0,93,0,5.9,42.7,6.6,43.8,7.8,46.1,6.1,43.0,10.0,6.0,0.0,9.9,15.9,0,13,0,0,87.0,2.6,32.0,0.6,4.5,4.5,1,1
396,Fontana,Chaco,Argentina,-27.417,-59.033,2026-07-13 04:00,6.1,43.0,0,4.3,6.8,121,ESE,1024.0,30.24,0.0,0.0,93,0,4.7,40.5,7.0,44.7,8.1,46.6,6.0,42.8,5.0,3.0,0.0,8.5,13.7,0,12,0,0,84.0,4.8,25.0,0.8,3.8,3.9,1,1
397,Federal,Entre Rios,Argentina,-30.95,-58.8,2026-07-13 04:00,5.1,41.1,0,5.6,9.0,71,ENE,1024.0,30.24,0.0,0.0,93,3,3.0,37.4,3.0,37.4,5.1,41.1,4.0,39.2,10.0,6.0,0.0,11.7,18.9,0,15,0,0,78.0,3.0,27.0,1.6,2.5,2.9,1,1
398,Ezeiza,Buenos Aires,Argentina,-34.838,-58.517,2026-07-13 04:00,7.1,44.8,0,2.9,4.7,40,NE,1024.0,30.24,0.0,0.0,81,25,6.6,43.8,4.6,40.3,5.3,41.6,2.0,35.6,9.0,5.0,0.0,5.8,9.3,0,9,0,0,566.0,42.7,1.0,10.6,14.9,15.8,1,2
399,Esquina,Corrientes,Argentina,-30.017,-59.533,2026-07-13 04:00,6.1,43.0,0,4.5,7.2,84,E,1024.0,30.24,0.0,0.0,92,0,4.6,40.3,4.6,40.4,6.1,43.0,5.0,40.9,10.0,6.0,0.0,9.4,15.1,0,14,0,0,103.0,2.9,32.0,0.9,5.8,6.2,1,1
400,Cambaceres,Buenos Aires,Argentina,-34.85,-57.917,2026-07-13 03:45,7.0,44.6,0,2.7,4.3,52,NE,1024.0,30.24,0.0,0.0,81,25,6.6,43.9,6.2,43.1,6.6,43.9,3.0,37.4,9.0,5.0,0.0,4.7,7.6,0,9,0,0,123.0,16.8,27.0,3.0,9.7,10.9,1,1
401,El Soberbio,Misiones,Argentina,-27.3,-54.217,2026-07-13 04:00,4.7,40.5,0,2.2,3.6,140,SE,1023.0,30.22,0.0,0.0,98,100,0.4,32.7,4.7,40.5,4.7,40.5,4.5,40.1,0.0,0.0,0.0,2.3,3.7,0,43,0,0,155.0,2.0,37.0,0.8,4.6,4.8,1,1
402,Haedo,Buenos Aires,Argentina,-34.633,-58.6,2026-07-13 03:45,7.0,44.6,0,2.9,4.7,54,NE,1024.0,30.24,0.0,0.0,81,25,6.5,43.6,6.2,43.2,6.8,44.2,2.7,36.8,9.0,5.0,0.0,5.1,8.3,0,8,0,0,904.0,42.0,0.0,11.4,16.7,17.6,2,2
403,Eldorado,Misiones,Argentina,-26.383,-54.667,2026-07-13 04:00,8.3,46.9,0,2.2,3.6,179,S,1022.0,30.18,0.0,0.0,93,75,8.4,47.0,6.2,43.1,6.3,43.4,6.2,43.1,5.0,3.0,0.0,4.5,7.2,0,43,0,0,99.0,2.9,32.0,0.9,7.1,7.2,1,1
404,Don Torcuato,Buenos Aires,Argentina,-34.5,-58.633,2026-07-13 03:45,7.0,44.6,0,3.6,5.8,44,NE,1024.0,30.24,0.0,0.0,81,25,6.1,43.0,6.6,43.9,7.4,45.4,3.4,38.0,9.0,5.0,0.0,6.2,10.0,0,8,0,0,919.0,30.5,13.0,15.8,15.9,16.9,2,2
405,Dolores,Buenos Aires,Argentina,-36.333,-57.667,2026-07-13 04:00,3.0,37.3,0,3.4,5.4,20,NNE,1024.0,30.24,0.0,0.0,89,3,1.6,34.9,1.6,34.9,3.0,37.3,1.4,34.5,10.0,6.0,0.0,7.0,11.3,0,13,0,10,62.0,3.4,30.0,0.6,3.8,5.6,1,1
406,Curuzu Cuatia,Corrientes,Argentina,-29.783,-58.05,2026-07-13 04:00,5.4,41.8,0,4.9,7.9,111,ESE,1024.0,30.24,0.0,0.0,93,3,3.7,38.7,3.7,38.6,5.4,41.8,4.3,39.8,10.0,6.0,0.0,10.3,16.6,0,15,0,0,70.0,2.2,31.0,1.0,1.9,2.2,1,1
407,Corrientes,Corrientes,Argentina,-27.467,-58.833,2026-07-13 04:00,7.2,45.0,0,4.5,7.2,122,ESE,1024.0,30.24,0.0,0.0,93,0,5.9,42.7,6.7,44.1,7.9,46.2,5.8,42.4,10.0,6.0,0.0,9.0,14.5,0,12,0,0,74.0,5.4,29.0,1.3,4.2,4.4,1,1
408,Concordia,Entre Rios,Argentina,-31.4,-58.033,2026-07-13 04:00,5.1,41.2,0,3.6,5.8,86,E,1025.0,30.27,0.0,0.0,93,0,3.9,39.1,4.0,39.2,5.2,41.3,3.9,39.0,10.0,6.0,0.0,7.3,11.8,0,14,0,0,84.0,3.1,36.0,1.2,2.8,3.1,1,1
409,Concepcion Del Uruguay,Entre Rios,Argentina,-32.483,-58.228,2026-07-13 04:00,4.4,39.9,0,4.9,7.9,49,NE,1024.0,30.24,0.0,0.0,93,7,2.5,36.5,2.5,36.4,4.4,39.9,3.4,38.1,10.0,6.0,0.0,10.2,16.4,0,15,0,0,102.0,6.7,24.0,2.2,7.1,7.5,1,1
410,Colon,Entre Rios,Argentina,-32.217,-58.133,2026-07-13 03:45,4.6,40.3,0,4.9,7.9,72,ENE,1025.0,30.26,0.0,0.0,93,0,2.7,36.9,2.7,36.9,4.6,40.3,3.6,38.5,10.0,6.0,0.0,10.1,16.2,0,15,0,0,228.0,6.7,26.0,2.0,8.9,9.3,1,1
411,Chacarita,Distrito Federal,Argentina,-34.583,-58.45,2026-07-13 04:00,7.1,44.8,0,5.6,9.0,29,NNE,1024.0,30.24,0.0,0.0,81,25,5.4,41.7,6.5,43.7,8.1,46.5,4.2,39.7,9.0,5.0,0.0,8.9,14.4,0,8,0,0,709.0,21.1,32.0,6.7,8.8,9.8,1,1
412,Chascomus,Buenos Aires,Argentina,-35.567,-58.017,2026-07-13 03:45,3.6,38.5,0,3.4,5.4,34,NE,1024.0,30.25,0.0,0.0,87,0,2.4,36.3,2.4,36.2,3.6,38.5,1.7,35.1,10.0,6.0,0.0,7.0,11.3,0,12,0,11,89.0,5.1,29.0,0.7,3.7,5.1,1,1
413,Chajari,Entre Rios,Argentina,-30.767,-57.983,2026-07-13 04:00,5.7,42.3,0,2.9,4.7,100,E,1024.0,30.24,0.0,0.0,93,3,0.8,33.4,5.0,41.1,5.7,42.3,4.7,40.4,10.0,6.0,0.0,6.0,9.7,0,15,0,0,78.0,1.8,37.0,0.6,1.8,2.1,1,1
414,6 De Septiembre,Buenos Aires,Argentina,-34.643,-58.618,2026-07-13 03:45,7.0,44.6,0,2.9,4.7,54,NE,1024.0,30.24,0.0,0.0,81,25,6.5,43.6,6.2,43.2,6.8,44.2,2.7,36.8,9.0,5.0,0.0,5.1,8.3,0,8,0,0,904.0,42.0,0.0,11.4,16.7,17.6,2,2
415,Carmen De Areco,Buenos Aires,Argentina,-34.386,-59.829,2026-07-13 04:00,3.6,38.6,0,6.7,10.8,29,NNE,1024.0,30.23,0.0,0.0,82,0,0.9,33.6,0.9,33.5,3.6,38.6,0.9,33.7,10.0,6.0,0.0,14.1,22.7,0,10,0,10,140.0,9.5,25.0,3.9,6.0,6.9,1,1
416,Canuelas,Buenos Aires,Argentina,-35.047,-58.75,2026-07-13 03:45,0.3,32.5,0,3.6,5.8,42,NE,1024.0,30.24,0.0,0.0,100,0,-1.6,29.2,2.5,36.4,3.8,38.9,0.9,33.6,8.0,4.0,0.0,7.5,12.1,0,10,0,10,138.0,17.9,15.0,3.0,5.8,6.7,1,1
417,Campana,Buenos Aires,Argentina,-34.177,-58.921,2026-07-13 03:45,2.2,36.0,0,3.8,6.1,18,NNE,1024.0,30.24,0.0,0.0,100,0,0.5,32.8,3.0,37.5,4.4,40.0,2.0,35.6,0.3,0.0,0.0,8.0,12.9,0,11,0,0,111.0,13.3,28.0,8.0,6.8,8.1,1,1
418,Florencio Varela,Buenos Aires,Argentina,-34.827,-58.396,2026-07-13 03:45,7.0,44.6,0,2.7,4.3,57,ENE,1024.0,30.24,0.0,0.0,81,25,6.6,43.9,6.2,43.1,6.6,43.9,2.4,36.3,9.0,5.0,0.0,4.8,7.7,0,7,0,0,448.0,42.0,0.0,11.4,16.7,17.6,2,2
419,Constitucion,Distrito Federal,Argentina,-34.617,-58.383,2026-07-13 04:00,7.1,44.8,0,5.6,9.0,30,NNE,1024.0,30.24,0.0,0.0,81,25,5.4,41.7,6.4,43.5,8.0,46.3,4.1,39.4,9.0,5.0,0.0,9.0,14.4,0,8,0,0,709.0,42.7,1.0,10.6,14.9,15.8,1,2
420,Brandsen,Buenos Aires,Argentina,-35.172,-58.23,2026-07-13 04:00,0.3,32.5,0,3.8,6.1,36,NE,1024.0,30.24,0.0,0.0,100,0,-1.7,28.9,2.2,36.0,3.7,38.7,1.2,34.1,8.0,4.0,0.0,8.0,12.9,0,11,0,11,153.0,20.2,13.0,3.8,7.5,8.6,1,1
421,Boedo,Distrito Federal,Argentina,-34.633,-58.417,2026-07-13 04:00,7.0,44.6,0,4.7,7.6,30,NNE,1024.0,30.24,0.0,0.0,81,25,5.6,42.1,6.2,43.2,7.5,45.6,3.7,38.7,9.0,5.0,0.0,7.9,12.7,0,8,0,0,709.0,42.7,1.0,10.6,14.9,15.8,1,2
422,Berisso,Buenos Aires,Argentina,-34.867,-57.883,2026-07-13 03:45,7.0,44.6,0,2.7,4.3,52,NE,1024.0,30.24,0.0,0.0,81,25,6.6,43.9,6.2,43.1,6.6,43.9,3.0,37.4,9.0,5.0,0.0,4.7,7.6,0,9,0,0,123.0,16.8,27.0,3.0,9.7,10.9,1,1
423,Villa Espana,Buenos Aires,Argentina,-34.767,-58.2,2026-07-13 04:00,7.1,44.8,0,4.9,7.9,29,NNE,1024.0,30.24,0.0,0.0,81,25,5.6,42.1,6.5,43.8,7.9,46.2,3.5,38.3,9.0,5.0,0.0,8.1,13.0,0,7,0,0,468.0,42.7,1.0,10.6,14.9,15.8,1,2
424,Benito Juarez,Buenos Aires,Argentina,-37.667,-59.8,2026-07-13 04:00,1.8,35.2,0,9.8,15.8,10,N,1023.0,30.2,0.0,0.0,91,4,-2.4,27.7,-2.3,27.8,1.8,35.2,0.5,32.8,10.0,6.0,0.0,20.3,32.6,0,14,0,20,71.0,2.0,34.0,0.6,2.7,3.5,1,1
425,Bella Vista,Buenos Aires,Argentina,-34.55,-58.683,2026-07-13 04:00,7.1,44.8,0,3.6,5.8,13,NNE,1024.0,30.24,0.0,0.0,81,25,6.2,43.2,5.7,42.2,6.6,43.9,2.9,37.2,9.0,5.0,0.0,6.4,10.3,0,8,0,0,536.0,27.1,16.0,12.9,12.3,13.2,1,2
426,Belgrano,Distrito Federal,Argentina,-34.567,-58.467,2026-07-13 04:00,7.1,44.8,0,5.6,9.0,29,NNE,1024.0,30.24,0.0,0.0,81,25,5.4,41.7,6.5,43.7,8.1,46.5,4.2,39.7,9.0,5.0,0.0,8.9,14.4,0,8,0,0,709.0,21.1,32.0,6.7,8.8,9.8,1,1
427,Barranqueras,Chaco,Argentina,-27.483,-58.933,2026-07-13 04:00,6.1,43.0,0,4.3,6.8,122,ESE,1024.0,30.24,0.0,0.0,93,0,4.7,40.5,7.1,44.8,8.1,46.6,5.8,42.5,5.0,3.0,0.0,8.4,13.6,0,11,0,0,74.0,5.4,29.0,1.3,4.2,4.4,1,1
428,Avellaneda,Buenos Aires,Argentina,-34.651,-58.382,2026-07-13 03:45,7.0,44.6,0,5.1,8.3,51,NE,1024.0,30.24,0.0,0.0,81,25,5.4,41.8,6.7,44.0,8.1,46.5,3.8,38.8,9.0,5.0,0.0,8.2,13.1,0,7,0,0,780.0,42.0,0.0,11.4,16.7,17.6,2,2
429,Baradero,Buenos Aires,Argentina,-33.797,-59.521,2026-07-13 04:00,4.3,39.7,0,4.5,7.2,36,NE,1024.0,30.23,0.0,0.0,89,0,2.5,36.5,2.5,36.5,4.2,39.7,2.7,36.8,10.0,6.0,0.0,9.4,15.1,0,13,0,0,79.0,6.2,34.0,4.6,5.1,6.0,1,1
430,Banfield,Buenos Aires,Argentina,-34.75,-58.4,2026-07-13 03:45,7.0,44.6,0,2.7,4.3,57,ENE,1024.0,30.24,0.0,0.0,81,25,6.6,43.9,6.2,43.1,6.6,43.9,2.4,36.3,9.0,5.0,0.0,4.8,7.7,0,7,0,0,448.0,42.0,0.0,11.4,16.7,17.6,2,2
431,Balcarce,Buenos Aires,Argentina,-37.833,-58.25,2026-07-13 03:45,1.5,34.7,0,4.0,6.5,345,NNW,1024.0,30.23,0.0,0.0,92,3,-0.5,31.1,-0.5,31.2,1.5,34.7,0.3,32.5,10.0,6.0,0.0,8.5,13.6,0,14,0,19,78.0,2.6,30.0,0.5,2.8,4.0,1,1
432,Azul,Buenos Aires,Argentina,-36.783,-59.85,2026-07-13 04:00,2.2,35.9,0,6.3,10.1,15,NNE,1023.0,30.22,0.0,0.0,88,32,-0.7,30.7,-0.8,30.6,2.2,35.9,0.4,32.8,10.0,6.0,0.0,13.2,21.2,0,16,0,9,66.0,1.5,36.0,0.4,2.2,3.1,1,1
433,Ayacucho,Buenos Aires,Argentina,-37.15,-58.483,2026-07-13 04:00,2.2,36.0,0,5.6,9.0,353,N,1024.0,30.23,0.0,0.0,93,3,-0.4,31.3,-0.4,31.3,2.2,36.0,1.2,34.1,10.0,6.0,0.0,11.7,18.9,0,15,0,8,63.0,2.5,27.0,0.4,2.3,3.3,1,1
434,Avellaneda,Santa Fe,Argentina,-29.117,-59.667,2026-07-13 04:00,4.0,39.2,0,5.4,8.6,91,E,1024.0,30.24,0.0,0.0,93,0,1.8,35.2,5.2,41.3,6.8,44.3,5.1,41.1,0.8,0.0,0.0,11.3,18.1,0,13,0,0,81.0,3.1,32.0,0.7,4.1,4.6,1,1
435,Apostoles,Misiones,Argentina,-27.917,-55.767,2026-07-13 03:45,5.9,42.5,0,3.4,5.4,124,SE,1024.0,30.23,0.0,0.0,95,3,4.9,40.8,4.9,40.8,5.8,42.5,5.2,41.3,2.0,1.0,0.0,7.0,11.3,0,20,0,0,94.0,2.5,28.0,0.6,3.3,3.5,1,1
436,Zapala,Neuquen,Argentina,-38.9,-70.067,2026-07-13 04:00,7.3,45.1,0,5.4,8.6,313,NW,1008.0,29.78,0.0,0.0,46,31,5.7,42.3,5.7,42.2,7.3,45.1,-3.6,25.6,10.0,6.0,0.0,11.3,18.1,0,3,0,0,72.0,2.6,31.0,0.5,1.5,1.9,1,1
437,Marcos Paz,Tucuman,Argentina,-26.817,-65.283,2026-07-13 03:45,9.4,48.9,0,2.2,3.6,334,NNW,1022.0,30.18,0.0,0.0,93,50,9.6,49.2,9.1,48.3,8.9,48.1,5.2,41.4,5.0,3.0,0.0,4.7,7.6,0,9,0,0,374.0,25.0,11.0,5.7,19.9,20.3,2,2
438,Villa Regina,Rio Negro,Argentina,-39.1,-67.067,2026-07-13 04:00,8.1,46.7,0,14.3,23.0,20,NNE,1011.0,29.85,0.0,0.0,69,6,4.7,40.5,4.7,40.5,8.1,46.7,2.8,37.1,10.0,6.0,0.0,25.7,41.3,0,6,0,0,73.0,0.9,37.0,0.6,4.8,5.1,1,1
439,Chimbas,San Juan,Argentina,-31.483,-68.533,2026-07-13 04:00,6.1,43.0,0,2.2,3.6,27,NNE,1019.0,30.09,0.0,0.0,75,0,5.9,42.7,8.8,47.9,8.7,47.7,0.4,32.6,10.0,6.0,0.0,4.7,7.6,0,5,0,0,208.0,9.3,25.0,2.1,10.2,16.1,1,1
440,Villa Nueva,Cordoba,Argentina,-32.433,-63.25,2026-07-13 04:00,5.7,42.3,0,9.6,15.5,16,NNE,1021.0,30.16,0.0,0.0,86,11,2.5,36.5,2.5,36.6,5.7,42.3,3.6,38.4,10.0,6.0,0.0,20.2,32.5,0,13,0,0,95.0,3.4,29.0,0.7,5.7,5.7,1,1
441,Villa Maria,Cordoba,Argentina,-32.417,-63.25,2026-07-13 04:00,5.7,42.3,0,9.6,15.5,16,NNE,1021.0,30.16,0.0,0.0,86,11,2.5,36.5,2.5,36.6,5.7,42.3,3.6,38.4,10.0,6.0,0.0,20.2,32.5,0,13,0,0,95.0,3.4,29.0,0.7,5.7,5.7,1,1
442,Villa Dolores,Cordoba,Argentina,-31.933,-65.2,2026-07-13 04:00,5.9,42.6,0,2.9,4.7,28,NNE,1018.0,30.06,0.0,0.0,70,32,1.0,33.8,5.2,41.4,5.9,42.6,0.8,33.5,10.0,6.0,0.0,6.1,9.8,0,8,0,0,121.0,8.6,24.0,0.9,20.3,21.1,2,2
443,Villa Del Rosario,Cordoba,Argentina,-31.583,-63.533,2026-07-13 03:45,6.6,43.8,0,7.6,12.2,24,NNE,1022.0,30.19,0.0,0.0,77,9,4.1,39.4,4.1,39.4,6.6,43.8,2.8,37.0,10.0,6.0,0.0,16.0,25.7,0,9,0,0,93.0,1.7,38.0,0.5,4.6,4.7,1,1
444,Villa Constitucion,Santa Fe,Argentina,-33.233,-60.333,2026-07-13 04:00,2.2,36.0,0,4.5,7.2,45,NE,1023.0,30.21,0.0,0.0,100,0,0.1,32.2,3.3,37.9,4.9,40.9,2.3,36.2,1.5,0.0,0.0,9.4,15.1,0,11,0,0,75.0,4.5,35.0,1.6,3.2,3.7,1,1
445,La Cuesta,Cordoba,Argentina,-31.417,-64.483,2026-07-13 04:00,6.0,42.8,0,4.7,7.6,344,NNW,1020.0,30.11,0.0,0.0,74,32,4.4,39.9,4.4,39.9,6.0,42.8,1.8,35.2,10.0,6.0,0.0,9.9,15.9,0,10,0,0,170.0,13.0,24.0,1.6,16.7,17.1,2,2
446,Villa Angela,Chaco,Argentina,-27.583,-60.717,2026-07-13 04:00,7.3,45.2,0,5.1,8.3,82,E,1023.0,30.21,0.0,0.0,86,11,5.8,42.4,5.8,42.4,7.3,45.2,5.2,41.3,10.0,6.0,0.0,10.8,17.4,0,12,0,0,90.0,6.5,24.0,0.6,6.2,6.2,1,1
447,Villa Allende,Cordoba,Argentina,-31.3,-64.3,2026-07-13 04:00,3.3,37.9,0,6.3,10.1,15,NNE,1021.0,30.15,0.0,0.0,100,0,0.6,33.1,5.1,41.2,7.1,44.7,2.6,36.7,10.0,6.0,0.0,13.2,21.2,0,10,0,0,120.0,13.0,24.0,1.6,16.7,17.1,2,2
448,Viedma,Rio Negro,Argentina,-40.8,-63.0,2026-07-13 04:00,6.2,43.2,0,18.6,29.9,10,N,1016.0,30.0,0.0,0.0,87,0,1.6,34.9,2.6,36.7,6.9,44.5,3.7,38.6,10.0,6.0,0.0,30.0,48.3,0,10,0,0,68.0,0.7,39.0,0.5,1.5,2.0,1,1
449,Victoria,Entre Rios,Argentina,-32.609,-60.169,2026-07-13 04:00,5.3,41.6,0,5.8,9.4,40,NE,1023.0,30.22,0.0,0.0,86,0,3.2,37.8,3.2,37.7,5.3,41.6,3.2,37.7,10.0,6.0,0.0,12.2,19.7,0,12,0,0,85.0,3.3,32.0,2.2,2.9,3.4,1,1
