,location.name,location.region,location.country,location.lat,location.lon,current.last_updated,current.temp_c,current.temp_f,current.is_day,current.wind_mph,current.wind_kph,current.wind_degree,current.wind_dir,current.pressure_mb,current.pressure_in,current.precip_mm,current.precip_in,current.humidity,current.cloud,current.feelslike_c,current.feelslike_f,current.windchill_c,current.windchill_f,current.heatindex_c,current.heatindex_f,current.dewpoint_c,current.dewpoint_f,current.vis_km,current.vis_miles,current.uv,current.gust_mph,current.gust_kph,current.will_it_rain,current.chance_of_rain,current.will_it_snow,current.chance_of_snow,current.air_quality.co,current.air_quality.no2,current.air_quality.o3,current.air_quality.so2,current.air_quality.pm2_5,current.air_quality.pm10,current.air_quality.us-epa-index,current.air_quality.gb-defra-index
0,Ad Dakhla,,Western Sahara,23.7,-15.933,2026-07-13 09:00,19.7,67.5,1,14.1,22.7,30,NNE,1015.0,29.97,0.0,0.0,83,0,11.3,52.3,19.7,67.5,19.7,67.5,16.8,62.3,2.9,1.0,0.9,23.8,38.4,0,10,0,0,94.0,0.3,74.0,0.4,52.6,210.9,3,6
1,Tawlad,,Eritrea,15.6,39.467,2026-07-13 11:15,35.5,95.9,1,10.1,16.2,32,NNE,1006.0,29.71,0.0,0.0,39,30,28.3,82.9,35.5,95.9,38.7,101.7,19.6,67.2,9.0,5.0,8.4,11.6,18.6,0,2,0,0,118.0,0.6,108.0,1.6,10.8,24.2,1,1
2,Tantarna,,Eritrea,15.783,38.45,2026-07-13 11:00,28.5,83.3,1,3.8,6.1,283,WNW,1012.0,29.87,0.0,0.0,34,17,23.3,73.9,28.5,83.3,27.8,82.0,11.2,52.2,10.0,6.0,9.4,4.4,7.1,0,1,0,0,113.0,0.0,84.0,0.9,12.2,47.1,1,2
3,Himora (2),,Eritrea,14.301,36.607,2026-07-13 11:15,31.9,89.4,1,6.3,10.1,194,SSW,1010.0,29.82,0.0,0.0,45,4,33.1,91.6,31.9,89.4,33.7,92.6,18.5,65.4,10.0,6.0,8.5,7.2,11.6,0,1,0,0,130.0,0.8,96.0,0.6,12.5,39.6,1,2
4,Barentu,,Eritrea,15.114,37.593,2026-07-13 11:00,29.7,85.5,1,4.9,7.9,217,SW,1011.0,29.85,0.0,0.0,46,6,30.1,86.2,29.7,85.5,30.5,87.0,17.0,62.6,10.0,6.0,9.5,5.7,9.1,0,2,0,0,117.0,0.4,91.0,0.7,11.9,38.2,1,1
5,Asmara,,Eritrea,15.333,38.933,2026-07-13 11:15,24.5,76.1,1,5.8,9.4,17,NNE,1012.0,29.89,0.0,0.0,32,32,18.7,65.7,24.5,76.1,24.6,76.2,6.9,44.4,9.0,5.0,8.2,9.2,14.9,0,2,0,0,110.0,0.1,84.0,1.0,11.9,45.2,1,1
6,Aseb,,Eritrea,13.009,42.739,2026-07-13 11:15,32.7,90.9,1,8.1,13.0,16,NNE,1006.0,29.7,0.0,0.0,51,3,35.9,96.6,32.7,90.9,36.5,97.6,21.2,70.1,10.0,6.0,8.9,12.8,20.7,0,2,0,0,98.0,1.6,139.0,3.0,23.2,39.9,2,2
7,Addi Ugri,,Eritrea,14.886,38.816,2026-07-13 11:00,26.3,79.3,1,6.5,10.4,294,WNW,1012.0,29.88,0.0,0.0,36,18,20.3,68.5,26.3,79.3,26.0,78.8,10.0,50.0,10.0,6.0,10.0,8.3,13.4,0,1,0,0,111.0,0.0,83.0,0.9,11.2,40.4,1,1
8,Zubia,Andalucia,Spain,37.117,-3.583,2026-07-13 10:15,21.2,70.2,1,2.2,3.6,221,SW,1018.0,30.06,0.0,0.0,60,0,21.2,70.2,24.5,76.1,24.9,76.8,8.9,48.0,10.0,6.0,2.6,2.6,4.1,0,1,0,0,117.0,14.3,48.0,1.2,6.2,13.7,1,1
9,Zafra,Extremadura,Spain,38.417,-6.417,2026-07-13 10:00,20.4,68.7,1,2.2,3.6,95,E,1017.0,30.02,0.0,0.0,56,3,15.8,60.4,20.4,68.7,20.4,68.7,11.4,52.6,10.0,6.0,2.0,2.3,3.7,0,3,0,0,96.0,3.7,45.0,1.0,3.6,7.2,1,1
10,Yecla,Murcia,Spain,38.617,-1.117,2026-07-13 10:00,25.3,77.6,1,4.9,7.9,349,N,1015.0,29.98,0.0,0.0,38,4,19.8,67.6,25.3,77.6,25.5,77.8,9.9,49.9,10.0,6.0,2.8,5.9,9.5,0,1,0,0,102.0,1.4,63.0,0.3,7.2,15.8,1,1
11,Yaiza,Canarias,Spain,28.95,-13.75,2026-07-13 09:15,20.9,69.5,1,10.3,16.6,21,NNE,1017.0,30.04,0.0,0.0,77,29,13.6,56.5,20.9,69.5,20.9,69.5,16.7,62.1,10.0,6.0,1.2,14.7,23.7,0,11,0,0,90.0,0.7,79.0,0.6,9.7,16.2,1,1
12,Villena,Comunidad Valenciana,Spain,38.633,-0.85,2026-07-13 10:15,25.6,78.1,1,2.7,4.3,162,SSE,1015.0,29.98,0.0,0.0,66,2,22.5,72.5,25.6,78.1,27.1,80.7,18.8,65.9,10.0,6.0,2.8,3.1,5.0,0,5,0,0,112.0,4.7,76.0,0.7,13.4,27.3,1,2
13,Villarrobledo,Castilla-La Mancha,Spain,39.267,-2.6,2026-07-13 10:15,23.8,74.8,1,8.1,13.0,262,W,1016.0,30.0,0.0,0.0,35,0,17.2,63.0,23.8,74.8,24.4,75.8,7.3,45.2,10.0,6.0,2.6,9.3,14.9,0,1,0,0,109.0,1.8,67.0,0.6,3.7,6.5,1,1
14,Villareal,Comunidad Valenciana,Spain,39.933,-0.1,2026-07-13 10:00,27.2,81.0,1,4.0,6.5,84,E,1014.0,29.95,0.0,0.0,71,41,29.4,84.9,27.2,81.0,29.7,85.4,21.5,70.7,10.0,6.0,2.7,4.6,7.5,0,9,0,0,117.0,12.2,72.0,4.8,11.0,26.9,1,1
15,Villanueva De La Serena,Extremadura,Spain,38.967,-5.8,2026-07-13 10:00,21.6,70.9,1,4.3,6.8,279,W,1016.0,30.02,0.0,0.0,54,4,16.3,61.3,21.6,70.9,24.4,76.0,12.0,53.6,10.0,6.0,2.1,4.9,7.9,0,3,0,0,92.0,1.8,49.0,0.4,3.8,7.0,1,1
16,Villajoyosa,Comunidad Valenciana,Spain,38.5,-0.233,2026-07-13 10:15,29.4,84.9,1,4.3,6.8,182,S,1013.0,29.91,0.01,0.0,75,75,36.0,96.9,26.0,78.7,28.6,83.6,22.6,72.7,10.0,6.0,2.4,4.9,7.9,0,16,0,0,113.0,2.9,83.0,0.4,10.9,22.1,1,1
17,Vicar,Andalucia,Spain,36.833,-2.633,2026-07-13 10:00,24.7,76.5,1,3.6,5.8,163,SSE,1015.0,29.96,0.0,0.0,70,3,19.6,67.3,24.7,76.5,26.3,79.4,18.9,66.1,10.0,6.0,2.6,4.8,7.7,0,6,0,0,132.0,7.6,63.0,1.3,11.2,24.7,1,1
18,Velez-Malaga,Andalucia,Spain,36.783,-4.1,2026-07-13 10:15,25.4,77.7,1,3.8,6.1,229,SW,1014.0,29.94,0.0,0.0,51,0,25.5,77.8,27.5,81.6,27.1,80.9,11.6,52.8,10.0,6.0,2.4,4.4,7.1,0,1,0,0,111.0,6.8,50.0,0.5,4.1,7.9,1,1
19,Valencia,Comunidad Valenciana,Spain,39.467,-0.367,2026-07-13 10:15,27.2,81.0,1,4.3,6.8,108,ESE,1013.0,29.91,0.0,0.0,74,75,29.7,85.4,26.7,80.1,28.9,84.0,21.1,70.0,10.0,6.0,2.7,5.3,8.5,0,6,0,0,146.0,17.7,77.0,2.8,12.0,30.1,1,2
20,Valdepenas,Castilla-La Mancha,Spain,38.767,-3.383,2026-07-13 10:15,22.2,72.0,1,2.5,4.0,216,SW,1016.0,30.01,0.0,0.0,43,2,17.5,63.5,22.2,72.0,24.2,75.6,9.1,48.3,10.0,6.0,2.5,2.8,4.6,0,1,0,0,110.0,2.0,58.0,0.8,4.0,6.4,1,1
21,Utrera,Andalucia,Spain,37.186,-5.787,2026-07-13 10:15,22.0,71.6,1,2.2,3.6,114,ESE,1016.0,30.0,0.0,0.0,73,0,24.6,76.2,22.6,72.7,24.8,76.6,15.6,60.2,10.0,6.0,2.1,6.7,10.8,0,4,0,0,112.0,10.5,51.0,0.6,5.4,12.3,1,1
22,Ubrique,Andalucia,Spain,36.683,-5.45,2026-07-13 10:15,22.3,72.1,1,4.5,7.2,253,WSW,1015.0,29.97,0.0,0.0,78,25,24.4,75.9,25.5,77.9,26.0,78.8,13.1,55.6,10.0,6.0,2.3,5.1,8.3,0,1,0,0,117.0,3.6,54.0,0.2,4.4,7.5,1,1
23,Ubeda,Andalucia,Spain,38.017,-3.367,2026-07-13 10:00,22.0,71.6,1,2.2,3.6,261,W,1016.0,30.02,0.0,0.0,53,3,17.3,63.1,22.0,71.6,24.5,76.1,12.0,53.5,10.0,6.0,2.5,2.6,4.1,0,2,0,0,119.0,3.2,58.0,1.7,5.3,10.5,1,1
24,Totana,Murcia,Spain,37.767,-1.5,2026-07-13 10:00,26.8,80.3,1,2.7,4.3,77,ENE,1015.0,29.96,0.0,0.0,66,3,27.6,81.7,26.8,80.3,28.5,83.4,19.8,67.7,10.0,6.0,2.6,3.1,5.0,0,4,0,0,114.0,3.6,71.0,0.6,13.1,27.2,1,2
25,Torrox,Andalucia,Spain,36.767,-3.967,2026-07-13 10:15,21.1,70.0,1,3.8,6.1,206,SSW,1017.0,30.03,0.0,0.0,64,0,21.1,70.0,25.4,77.7,25.6,78.1,10.9,51.7,10.0,6.0,2.5,6.0,9.6,0,1,0,0,108.0,6.1,47.0,0.5,3.9,7.6,1,1
26,Torrevieja,Comunidad Valenciana,Spain,37.983,-0.683,2026-07-13 10:00,30.4,86.7,1,5.6,9.0,174,S,1013.0,29.91,0.0,0.0,79,50,36.5,97.7,26.9,80.5,29.4,84.8,21.6,70.8,10.0,6.0,2.6,6.9,11.1,0,7,0,0,99.0,4.1,78.0,2.6,11.4,32.5,1,1
27,Torre-Pacheco,Murcia,Spain,37.733,-0.95,2026-07-13 10:15,28.3,82.9,1,2.7,4.3,165,SSE,1014.0,29.94,0.0,0.0,74,50,31.6,88.9,26.4,79.4,28.3,83.0,20.7,69.2,10.0,6.0,2.6,3.2,5.2,0,6,0,0,114.0,12.2,62.0,9.5,12.7,27.8,1,2
28,Torrente,Comunidad Valenciana,Spain,39.433,-0.467,2026-07-13 10:15,27.2,81.0,1,5.1,8.3,112,ESE,1013.0,29.91,0.0,0.0,74,75,29.0,84.2,27.7,81.8,29.7,85.4,20.3,68.6,10.0,6.0,2.7,5.9,9.5,0,4,0,0,133.0,12.7,73.0,2.7,11.5,30.4,1,1
29,Torremolinos,Andalucia,Spain,36.617,-4.5,2026-07-13 10:15,25.4,77.7,1,4.5,7.2,302,WNW,1014.0,29.94,0.0,0.0,51,0,26.1,79.1,24.6,76.4,25.6,78.1,13.7,56.6,10.0,6.0,2.4,5.3,8.6,0,2,0,0,112.0,3.6,59.0,0.4,4.4,8.9,1,1
30,Torre Del Mar,Andalucia,Spain,36.75,-4.083,2026-07-13 10:15,25.4,77.7,1,3.8,6.1,229,SW,1014.0,29.94,0.0,0.0,51,0,25.5,77.8,27.5,81.6,27.1,80.9,11.6,52.8,10.0,6.0,2.4,4.4,7.1,0,1,0,0,111.0,6.8,50.0,0.5,4.1,7.9,1,1
31,Tomelloso,Castilla-La Mancha,Spain,39.167,-3.017,2026-07-13 10:15,23.4,74.0,1,5.4,8.6,237,WSW,1016.0,30.0,0.0,0.0,38,0,17.7,63.9,23.4,74.0,24.4,75.9,8.3,47.0,10.0,6.0,2.6,6.2,9.9,0,1,0,0,115.0,2.3,66.0,0.7,3.9,7.1,1,1
32,Castilleja De La Cuesta,Andalucia,Spain,37.383,-6.05,2026-07-13 10:15,23.2,73.8,1,4.3,6.8,93,E,1015.0,29.97,0.0,0.0,73,0,25.1,77.1,22.6,72.7,24.8,76.6,15.9,60.7,10.0,6.0,2.1,4.9,7.9,0,5,0,0,144.0,23.9,39.0,2.9,9.1,15.9,1,1
33,Toledo,Castilla-La Mancha,Spain,39.867,-4.017,2026-07-13 10:00,22.9,73.2,1,7.4,11.9,265,W,1016.0,30.0,0.0,0.0,45,4,16.6,61.9,22.9,73.2,24.5,76.1,10.3,50.6,10.0,6.0,2.4,8.5,13.7,0,1,0,0,112.0,2.3,68.0,0.3,4.0,7.1,1,1
34,Tias,Canarias,Spain,28.95,-13.65,2026-07-13 09:15,23.3,73.9,1,10.5,16.9,20,NNE,1016.0,30.0,0.0,0.0,69,25,25.2,77.4,21.7,71.1,24.4,76.0,17.4,63.4,10.0,6.0,1.2,13.0,20.8,0,11,0,0,89.0,0.7,79.0,0.6,9.7,16.2,1,1
35,Telde,Canarias,Spain,28.0,-15.417,2026-07-13 09:00,20.5,68.9,1,9.8,15.8,18,NNE,1018.0,30.06,0.0,0.0,72,0,13.4,56.1,20.5,68.9,20.5,68.9,15.3,59.6,10.0,6.0,1.1,11.6,18.7,0,6,0,0,97.0,1.3,79.0,0.9,11.2,18.6,1,1
36,Teguise,Canarias,Spain,29.05,-13.55,2026-07-13 09:15,23.3,73.9,1,10.5,16.9,17,NNE,1016.0,30.0,0.01,0.0,69,25,25.2,77.4,21.7,71.1,24.5,76.0,17.5,63.4,10.0,6.0,1.0,12.8,20.6,0,18,0,0,88.0,0.4,76.0,0.5,9.5,15.9,1,1
37,Tarifa,Andalucia,Spain,36.013,-5.606,2026-07-13 10:15,22.3,72.1,1,8.1,13.0,274,W,1015.0,29.97,0.0,0.0,78,25,24.7,76.4,22.0,71.7,24.6,76.2,17.2,62.9,10.0,6.0,2.2,9.9,16.0,0,7,0,0,101.0,1.3,61.0,0.2,3.8,5.7,1,1
38,Talavera De La Reina,Castilla-La Mancha,Spain,39.95,-4.833,2026-07-13 10:15,22.6,72.6,1,7.4,11.9,262,W,1016.0,30.0,0.0,0.0,49,6,16.2,61.2,22.5,72.6,24.5,76.2,11.4,52.6,10.0,6.0,2.1,8.5,13.7,0,2,0,0,113.0,2.2,65.0,0.3,4.3,7.8,1,1
39,El Sauzal,Canarias,Spain,28.467,-16.417,2026-07-13 09:15,19.5,67.1,1,5.1,8.3,32,NNE,1018.0,30.08,0.01,0.0,76,79,13.9,57.0,19.5,67.1,19.5,67.1,15.2,59.4,10.0,6.0,1.0,7.3,11.8,0,18,0,0,96.0,1.6,69.0,1.0,9.3,15.2,1,1
40,Tabernas,Comunidad Valenciana,Spain,39.067,-0.267,2026-07-13 10:00,28.0,82.4,1,2.5,4.0,78,E,1014.0,29.95,0.0,0.0,65,9,30.0,86.0,28.0,82.4,30.3,86.5,20.8,69.4,10.0,6.0,2.7,2.8,4.6,0,5,0,0,118.0,3.7,89.0,0.5,13.4,31.8,1,2
41,Sueca,Comunidad Valenciana,Spain,39.2,-0.317,2026-07-13 10:15,27.2,81.0,1,2.5,4.0,95,E,1013.0,29.91,0.0,0.0,74,75,28.8,83.8,28.2,82.7,30.3,86.5,20.3,68.5,10.0,6.0,2.7,2.8,4.6,0,4,0,0,128.0,4.2,83.0,0.6,12.2,29.2,1,2
42,Son Rapina,Islas Baleares,Spain,39.583,2.617,2026-07-13 10:15,29.1,84.4,1,8.9,14.4,198,SSW,1012.0,29.88,0.0,0.0,75,25,30.9,87.6,29.5,85.1,31.5,88.8,19.7,67.5,10.0,6.0,2.9,10.3,16.6,0,3,0,0,117.0,7.9,71.0,0.9,10.0,23.1,1,1
43,Silla,Comunidad Valenciana,Spain,39.367,-0.417,2026-07-13 10:15,27.2,81.0,1,4.3,6.8,108,ESE,1013.0,29.91,0.0,0.0,74,75,29.7,85.4,26.7,80.1,28.9,84.0,21.1,70.0,10.0,6.0,2.7,5.3,8.5,0,6,0,0,146.0,17.7,77.0,2.8,12.0,30.1,1,2
44,Sevilla,Andalucia,Spain,37.377,-5.987,2026-07-13 10:15,23.2,73.8,1,4.3,6.8,93,E,1015.0,29.97,0.0,0.0,73,0,25.1,77.1,22.6,72.7,24.8,76.6,15.9,60.7,10.0,6.0,2.1,4.9,7.9,0,5,0,0,144.0,23.9,39.0,2.9,9.1,15.9,1,1
45,San Vicente Del Raspeig,Comunidad Valenciana,Spain,38.4,-0.517,2026-07-13 10:15,29.4,84.9,1,4.5,7.2,178,S,1013.0,29.91,0.0,0.0,75,75,35.0,95.0,26.4,79.6,28.9,84.1,22.0,71.7,10.0,6.0,2.6,5.1,8.3,0,11,0,0,112.0,7.5,82.0,1.0,11.9,24.6,1,1
46,Santomera,Murcia,Spain,38.067,-1.05,2026-07-13 10:15,29.4,84.9,1,2.2,3.6,130,SE,1013.0,29.91,0.0,0.0,75,75,33.0,91.4,28.1,82.5,30.5,87.0,21.2,70.1,10.0,6.0,2.6,2.6,4.1,0,6,0,0,118.0,4.7,71.0,1.1,15.9,36.4,2,2
47,Santa Pola,Comunidad Valenciana,Spain,38.183,-0.55,2026-07-13 10:00,29.3,84.7,1,4.9,7.9,173,S,1013.0,29.91,0.0,0.0,75,75,34.0,93.1,27.0,80.6,29.5,85.1,21.7,71.1,10.0,6.0,2.6,6.0,9.6,0,7,0,0,107.0,5.6,79.0,1.8,14.4,33.7,1,2
48,Santa Lucia,Canarias,Spain,27.917,-15.533,2026-07-13 09:00,20.5,68.9,1,9.8,15.8,18,NNE,1018.0,30.06,0.0,0.0,72,0,13.4,56.1,20.5,68.9,20.5,68.9,15.3,59.6,10.0,6.0,1.1,11.6,18.7,0,6,0,0,97.0,1.3,79.0,0.9,11.2,18.6,1,1
49,Santafe,Andalucia,Spain,37.183,-3.717,2026-07-13 10:15,21.1,70.0,1,2.2,3.6,214,SW,1017.0,30.03,0.0,0.0,64,0,21.1,70.0,23.5,74.3,24.8,76.6,11.0,51.8,10.0,6.0,2.6,6.7,10.8,0,1,0,0,107.0,5.7,48.0,0.7,4.4,8.2,1,1
50,Santa Eulalia Del Rio,Islas Baleares,Spain,38.983,1.517,2026-07-13 10:15,29.2,84.6,1,4.7,7.6,213,SSW,1013.0,29.91,0.0,0.0,79,75,35.3,95.5,27.0,80.7,30.4,86.8,23.4,74.1,10.0,6.0,2.7,5.7,9.2,0,11,0,0,113.0,7.0,82.0,0.8,13.0,19.4,1,2
51,Barrio Nuevo,Canarias,Spain,28.467,-16.267,2026-07-13 09:15,22.3,72.1,1,7.6,12.2,17,NNE,1017.0,30.03,0.01,0.0,57,25,24.7,76.4,20.7,69.3,20.7,69.3,16.7,62.0,10.0,6.0,1.0,10.0,16.1,0,20,0,0,93.0,1.6,69.0,1.0,9.3,15.2,1,1
52,Santa Cruz De La Palma,Canarias,Spain,28.683,-17.75,2026-07-13 09:15,22.1,71.8,1,8.5,13.7,23,NNE,1017.0,30.03,0.0,0.0,61,0,24.6,76.3,20.4,68.7,20.4,68.7,15.5,59.9,10.0,6.0,0.9,9.8,15.7,0,7,0,0,88.0,0.2,76.0,0.3,12.1,19.8,1,2
53,Santa Brigida,Canarias,Spain,28.033,-15.5,2026-07-13 09:15,22.1,71.8,1,7.8,12.6,21,NNE,1016.0,30.0,0.0,0.0,69,25,24.6,76.3,20.4,68.8,20.4,68.8,15.3,59.6,10.0,6.0,1.1,9.3,14.9,0,7,0,0,100.0,1.6,73.0,0.9,10.5,17.1,1,1
54,San Roque,Andalucia,Spain,36.209,-5.385,2026-07-13 10:00,20.8,69.5,1,9.6,15.5,267,W,1016.0,29.99,0.0,0.0,70,4,13.8,56.8,20.8,69.5,20.8,69.5,15.2,59.4,10.0,6.0,2.3,16.6,26.8,0,6,0,0,123.0,12.8,60.0,2.8,4.7,8.6,1,1
55,San Pedro Del Pinatar,Murcia,Spain,37.833,-0.783,2026-07-13 10:15,28.3,82.9,1,4.7,7.6,167,SSE,1014.0,29.94,0.0,0.0,74,50,31.9,89.4,26.2,79.2,28.4,83.0,21.1,69.9,10.0,6.0,2.6,5.8,9.3,0,6,0,0,100.0,5.6,68.0,2.0,8.7,23.7,1,1
56,San Pedro Alcantara,Andalucia,Spain,36.483,-4.983,2026-07-13 10:15,25.4,77.7,1,3.1,5.0,197,SSW,1014.0,29.94,0.0,0.0,51,0,25.8,78.4,25.9,78.7,26.2,79.1,12.2,54.0,10.0,6.0,2.3,3.6,5.8,0,1,0,0,131.0,7.7,50.0,0.4,6.3,10.2,1,1
57,Jama,Canarias,Spain,28.1,-16.633,2026-07-13 09:15,22.0,71.6,1,6.5,10.4,46,NE,1017.0,30.03,0.0,0.0,57,25,24.5,76.2,21.2,70.1,24.4,75.9,16.2,61.1,10.0,6.0,1.0,7.5,12.0,0,7,0,0,112.0,1.4,72.0,1.0,10.3,17.0,1,1
58,Sanlucar De Barrameda,Andalucia,Spain,36.783,-6.35,2026-07-13 10:15,22.1,71.8,1,4.5,7.2,326,NNW,1016.0,30.0,0.0,0.0,83,50,24.6,76.3,21.9,71.4,24.5,76.2,15.1,59.1,10.0,6.0,2.0,5.7,9.2,0,5,0,0,101.0,1.9,53.0,0.4,3.9,7.4,1,1
59,San Juan De Aznalfarache,Andalucia,Spain,37.367,-6.033,2026-07-13 10:00,23.4,74.1,1,4.3,6.8,93,E,1015.0,29.97,0.0,0.0,73,0,25.2,77.3,22.6,72.7,24.8,76.6,15.9,60.7,10.0,6.0,2.1,4.9,7.9,0,5,0,0,144.0,23.9,39.0,2.9,9.1,15.9,1,1
60,San Juan De Alicante,Comunidad Valenciana,Spain,38.4,-0.433,2026-07-13 10:15,29.4,84.9,1,4.7,7.6,188,S,1013.0,29.91,0.01,0.0,75,75,35.5,95.9,26.5,79.6,29.2,84.6,22.6,72.6,10.0,6.0,2.5,5.4,8.7,0,17,0,0,112.0,7.5,82.0,1.0,11.9,24.6,1,1
61,Casa Los Buenos,Murcia,Spain,37.8,-0.833,2026-07-13 10:15,28.3,82.9,1,4.7,7.6,167,SSE,1014.0,29.94,0.0,0.0,74,50,31.9,89.4,26.2,79.2,28.4,83.0,21.1,69.9,10.0,6.0,2.6,5.8,9.3,0,6,0,0,100.0,5.6,68.0,2.0,8.7,23.7,1,1
62,San Isidro,Canarias,Spain,28.067,-16.55,2026-07-13 09:15,22.0,71.6,1,6.5,10.4,46,NE,1017.0,30.03,0.0,0.0,57,25,24.5,76.2,21.2,70.1,24.4,75.9,16.2,61.1,10.0,6.0,1.0,7.5,12.0,0,7,0,0,112.0,1.4,72.0,1.0,10.3,17.0,1,1
63,Casa De San Carlos,Andalucia,Spain,36.483,-6.2,2026-07-13 10:15,22.1,71.8,1,4.0,6.5,327,NNW,1016.0,30.0,0.0,0.0,83,50,24.6,76.3,22.2,72.0,24.6,76.4,16.4,61.6,10.0,6.0,2.1,5.1,8.2,0,6,0,0,107.0,5.4,50.0,1.3,4.7,9.0,1,1
64,La Laguna,Canarias,Spain,28.483,-16.317,2026-07-13 09:00,17.1,62.8,1,6.5,10.4,20,NNE,1019.0,30.09,0.01,0.0,94,25,17.1,62.8,18.2,64.8,18.2,64.8,14.2,57.6,10.0,6.0,1.0,12.2,19.6,0,19,0,0,96.0,1.6,69.0,1.0,9.3,15.2,1,1
65,San Bartolome De Tirajana,Canarias,Spain,27.917,-15.55,2026-07-13 09:00,22.1,71.8,1,8.3,13.3,25,NNE,1016.0,30.0,0.0,0.0,69,25,24.6,76.3,21.6,70.8,24.5,76.1,15.3,59.6,10.0,6.0,1.1,9.5,15.3,0,5,0,0,100.0,1.2,77.0,0.9,11.1,18.3,1,1
66,San Bartolome,Canarias,Spain,29.0,-13.6,2026-07-13 09:15,23.3,73.9,1,10.5,16.9,20,NNE,1016.0,30.0,0.01,0.0,69,25,25.2,77.4,21.3,70.4,24.4,75.8,17.0,62.6,10.0,6.0,1.1,14.0,22.5,0,17,0,0,89.0,0.7,79.0,0.6,9.7,16.2,1,1
67,San Antonia Abad,Islas Baleares,Spain,38.967,1.3,2026-07-13 10:15,29.2,84.6,1,5.6,9.0,225,SW,1013.0,29.91,0.0,0.0,79,75,35.1,95.1,27.2,80.9,30.6,87.0,23.3,74.0,10.0,6.0,2.7,6.9,11.1,0,11,0,0,110.0,4.7,85.0,0.3,12.9,22.1,1,2
68,Sagunto,Comunidad Valenciana,Spain,39.683,-0.267,2026-07-13 10:15,27.2,81.0,1,4.9,7.9,107,ESE,1013.0,29.91,0.0,0.0,74,75,29.5,85.0,27.0,80.5,29.1,84.4,20.8,69.5,10.0,6.0,2.7,5.7,9.1,0,6,0,0,128.0,10.5,75.0,4.9,10.6,29.3,1,1
69,Rota,Andalucia,Spain,36.617,-6.35,2026-07-13 10:15,22.1,71.8,1,4.3,6.8,328,NNW,1016.0,30.0,0.0,0.0,83,50,24.6,76.3,21.9,71.4,24.5,76.2,15.7,60.3,10.0,6.0,2.0,5.5,8.8,0,5,0,0,99.0,2.2,53.0,0.4,4.2,7.2,1,1
70,Roquetas De Mar,Andalucia,Spain,36.767,-2.6,2026-07-13 10:00,24.7,76.5,1,3.6,5.8,163,SSE,1015.0,29.96,0.0,0.0,70,3,19.6,67.3,24.7,76.5,26.3,79.4,18.9,66.1,10.0,6.0,2.6,4.8,7.7,0,6,0,0,132.0,7.6,63.0,1.3,11.2,24.7,1,1
71,Ronda,Andalucia,Spain,36.733,-5.167,2026-07-13 10:15,21.0,69.9,1,2.7,4.3,10,N,1016.0,30.01,0.0,0.0,51,4,16.2,61.2,21.0,69.9,24.3,75.8,10.5,50.9,10.0,6.0,2.3,3.1,5.0,0,2,0,0,101.0,1.1,59.0,0.2,3.5,6.3,1,1
72,Benijofar,Comunidad Valenciana,Spain,38.083,-0.733,2026-07-13 10:00,29.3,84.7,1,4.9,7.9,173,S,1013.0,29.91,0.0,0.0,75,75,34.0,93.1,27.0,80.6,29.5,85.1,21.7,71.1,10.0,6.0,2.6,6.0,9.6,0,7,0,0,107.0,5.6,79.0,1.8,14.4,33.7,1,2
73,Benagalbon,Andalucia,Spain,36.717,-4.267,2026-07-13 10:15,25.4,77.7,1,4.9,7.9,292,WNW,1014.0,29.94,0.0,0.0,51,0,25.9,78.5,25.9,78.7,26.3,79.3,12.8,55.1,10.0,6.0,2.4,5.7,9.1,0,1,0,0,116.0,8.1,50.0,0.7,5.4,9.2,1,1
74,Ribarroja,Comunidad Valenciana,Spain,39.55,-0.567,2026-07-13 10:15,27.2,81.0,1,5.1,8.3,112,ESE,1013.0,29.91,0.0,0.0,74,75,29.0,84.2,27.7,81.8,29.7,85.4,20.3,68.6,10.0,6.0,2.7,5.9,9.5,0,4,0,0,133.0,12.7,73.0,2.7,11.5,30.4,1,1
75,Requena,Comunidad Valenciana,Spain,39.483,-1.1,2026-07-13 10:15,25.9,78.6,1,2.9,4.7,245,WSW,1015.0,29.97,0.0,0.0,56,3,23.6,74.5,25.9,78.6,26.9,80.4,16.5,61.7,10.0,6.0,2.8,3.4,5.4,0,3,0,0,109.0,1.7,73.0,0.3,10.4,27.9,1,1
76,Icod El Alto,Canarias,Spain,28.367,-16.6,2026-07-13 09:00,22.3,72.1,1,4.5,7.2,60,ENE,1017.0,30.03,0.0,0.0,57,25,24.7,76.4,21.2,70.2,24.4,75.9,15.9,60.7,10.0,6.0,1.0,5.1,8.3,0,6,0,0,91.0,0.8,74.0,0.6,9.5,15.8,1,1
77,Puzol,Comunidad Valenciana,Spain,39.617,-0.3,2026-07-13 10:15,27.2,81.0,1,4.9,7.9,107,ESE,1013.0,29.91,0.0,0.0,74,75,29.5,85.0,27.0,80.5,29.1,84.4,20.8,69.5,10.0,6.0,2.7,5.7,9.1,0,6,0,0,128.0,10.5,75.0,4.9,10.6,29.3,1,1
78,Puerto Real,Andalucia,Spain,36.533,-6.183,2026-07-13 10:15,22.1,71.8,1,4.0,6.5,327,NNW,1016.0,30.0,0.0,0.0,83,50,24.6,76.3,22.2,72.0,24.6,76.4,16.4,61.6,10.0,6.0,2.1,5.1,8.2,0,6,0,0,107.0,5.4,50.0,1.3,4.7,9.0,1,1
79,Puertollano,Castilla-La Mancha,Spain,38.683,-4.117,2026-07-13 10:00,22.2,72.0,1,2.2,3.6,261,W,1016.0,30.01,0.0,0.0,40,0,17.5,63.5,22.2,72.1,24.1,75.3,7.9,46.2,10.0,6.0,2.4,2.6,4.1,0,1,0,0,110.0,1.4,60.0,0.2,3.7,7.1,1,1
80,Puerto Del Rosario,Canarias,Spain,28.5,-13.867,2026-07-13 09:00,20.8,69.4,1,9.2,14.8,19,NNE,1017.0,30.04,0.0,0.0,78,22,13.9,57.0,20.8,69.4,20.8,69.4,16.9,62.4,10.0,6.0,1.3,12.6,20.2,0,10,0,0,90.0,0.6,81.0,0.6,9.7,15.9,1,1
81,Punta Brava,Canarias,Spain,28.4,-16.55,2026-07-13 09:15,22.0,71.6,1,4.0,6.5,49,NE,1017.0,30.03,0.0,0.0,57,25,24.5,76.2,20.8,69.5,20.8,69.5,15.8,60.5,10.0,6.0,1.0,4.6,7.5,0,7,0,0,100.0,1.6,69.0,1.0,9.3,15.2,1,1
82,Palomar,Andalucia,Spain,37.383,-4.767,2026-07-13 10:15,22.3,72.1,1,2.2,3.6,324,NW,1016.0,30.0,0.0,0.0,73,25,24.7,76.4,22.2,72.0,24.6,76.4,15.2,59.4,10.0,6.0,2.3,6.7,10.8,0,4,0,0,104.0,2.0,53.0,0.4,4.7,9.4,1,1
83,Puebla De Vallbona,Comunidad Valenciana,Spain,39.6,-0.55,2026-07-13 10:15,27.2,81.0,1,5.1,8.3,112,ESE,1013.0,29.91,0.0,0.0,74,75,29.0,84.2,27.7,81.8,29.7,85.4,20.3,68.6,10.0,6.0,2.7,5.9,9.5,0,4,0,0,133.0,12.7,73.0,2.7,11.5,30.4,1,1
84,Priego De Cordoba,Andalucia,Spain,37.433,-4.183,2026-07-13 10:15,21.1,70.0,1,2.2,3.6,214,SW,1017.0,30.03,0.0,0.0,64,0,21.1,70.0,23.5,74.3,24.8,76.6,11.0,51.8,10.0,6.0,2.6,6.7,10.8,0,1,0,0,107.0,5.7,48.0,0.7,4.4,8.2,1,1
85,Pozoblanco,Andalucia,Spain,38.367,-4.85,2026-07-13 10:15,21.7,71.1,1,2.5,4.0,343,NNW,1016.0,30.02,0.0,0.0,45,2,16.9,62.4,21.7,71.1,24.2,75.5,9.1,48.4,10.0,6.0,2.3,2.8,4.6,0,1,0,0,107.0,0.8,58.0,0.1,3.1,5.9,1,1
86,Pollensa,Islas Baleares,Spain,39.883,3.017,2026-07-13 10:15,29.1,84.4,1,11.4,18.4,129,SE,1012.0,29.88,0.0,0.0,75,25,32.1,89.8,28.4,83.2,30.9,87.6,21.0,69.8,10.0,6.0,2.9,13.4,21.6,0,4,0,0,107.0,2.1,87.0,0.4,10.0,20.0,1,1
87,San Pedro Del Pinatar,Murcia,Spain,37.833,-0.783,2026-07-13 10:15,28.3,82.9,1,4.7,7.6,167,SSE,1014.0,29.94,0.0,0.0,74,50,31.9,89.4,26.2,79.2,28.4,83.0,21.1,69.9,10.0,6.0,2.6,5.8,9.3,0,6,0,0,100.0,5.6,68.0,2.0,8.7,23.7,1,1
88,Picasent,Comunidad Valenciana,Spain,39.367,-0.45,2026-07-13 10:15,27.2,81.0,1,4.3,6.8,108,ESE,1013.0,29.91,0.0,0.0,74,75,29.7,85.4,26.7,80.1,28.9,84.0,21.1,70.0,10.0,6.0,2.7,5.3,8.5,0,6,0,0,146.0,17.7,77.0,2.8,12.0,30.1,1,2
89,Paterna,Comunidad Valenciana,Spain,39.5,-0.433,2026-07-13 10:15,27.2,81.0,1,5.1,8.3,112,ESE,1013.0,29.91,0.0,0.0,74,75,29.0,84.2,27.7,81.8,29.7,85.4,20.3,68.6,10.0,6.0,2.7,5.9,9.5,0,4,0,0,133.0,12.7,73.0,2.7,11.5,30.4,1,1
90,Palma,Islas Baleares,Spain,39.567,2.65,2026-07-13 10:15,29.1,84.4,1,8.9,14.4,198,SSW,1012.0,29.88,0.0,0.0,75,25,30.9,87.6,29.5,85.1,31.5,88.8,19.7,67.5,10.0,6.0,2.9,10.3,16.6,0,3,0,0,117.0,7.9,71.0,0.9,10.0,23.1,1,1
91,Palma Del Rio,Andalucia,Spain,37.7,-5.283,2026-07-13 10:15,22.0,71.6,1,2.2,3.6,358,N,1016.0,30.0,0.0,0.0,73,0,24.6,76.2,22.3,72.1,24.7,76.4,15.5,59.9,10.0,6.0,2.2,6.7,10.8,0,5,0,0,109.0,3.4,47.0,0.5,5.0,10.7,1,1
92,Mesquer,Canarias,Spain,28.367,-14.117,2026-07-13 09:15,22.0,71.6,1,9.8,15.8,22,NNE,1016.0,30.0,0.0,0.0,69,25,24.5,76.2,21.4,70.5,24.3,75.8,17.5,63.5,10.0,6.0,1.3,12.3,19.8,0,10,0,0,89.0,0.6,81.0,0.6,9.7,15.9,1,1
93,Valencia,Comunidad Valenciana,Spain,39.467,-0.367,2026-07-13 10:15,27.2,81.0,1,4.3,6.8,108,ESE,1013.0,29.91,0.0,0.0,74,75,29.7,85.4,26.7,80.1,28.9,84.0,21.1,70.0,10.0,6.0,2.7,5.3,8.5,0,6,0,0,146.0,17.7,77.0,2.8,12.0,30.1,1,2
94,Osuna,Andalucia,Spain,37.233,-5.117,2026-07-13 10:15,21.0,69.9,1,2.7,4.3,10,N,1016.0,30.01,0.0,0.0,51,4,16.2,61.2,21.0,69.9,24.3,75.8,10.5,50.9,10.0,6.0,2.3,3.1,5.0,0,2,0,0,101.0,1.1,59.0,0.2,3.5,6.3,1,1
95,Orihuela,Comunidad Valenciana,Spain,38.083,-0.95,2026-07-13 10:15,29.4,84.9,1,2.2,3.6,130,SE,1013.0,29.91,0.0,0.0,75,75,33.0,91.4,28.1,82.5,30.5,87.0,21.2,70.1,10.0,6.0,2.6,2.6,4.1,0,6,0,0,118.0,4.7,71.0,1.1,15.9,36.4,2,2
96,Balneario,Comunidad Valenciana,Spain,38.817,-0.617,2026-07-13 10:15,26.3,79.4,1,2.5,4.0,202,SSW,1015.0,29.97,0.0,0.0,57,3,25.2,77.4,26.3,79.4,27.3,81.2,17.0,62.6,10.0,6.0,2.8,2.8,4.6,0,3,0,0,108.0,3.7,76.0,0.4,11.9,35.3,1,1
97,Onda,Comunidad Valenciana,Spain,39.967,-0.25,2026-07-13 10:00,27.2,81.0,1,4.0,6.5,84,E,1014.0,29.95,0.0,0.0,71,41,29.4,84.9,27.2,81.0,29.7,85.4,21.5,70.7,10.0,6.0,2.7,4.6,7.5,0,9,0,0,117.0,12.2,72.0,4.8,11.0,26.9,1,1
98,Oliva,Comunidad Valenciana,Spain,38.917,-0.117,2026-07-13 10:00,28.0,82.4,1,2.5,4.0,78,E,1014.0,29.95,0.0,0.0,65,9,30.0,86.0,28.0,82.4,30.3,86.5,20.8,69.4,10.0,6.0,2.7,2.8,4.6,0,5,0,0,118.0,3.7,89.0,0.5,13.4,31.8,1,2
99,Novelda,Comunidad Valenciana,Spain,38.383,-0.767,2026-07-13 10:15,25.6,78.1,1,2.7,4.3,162,SSE,1015.0,29.98,0.0,0.0,66,2,22.5,72.5,25.6,78.1,27.1,80.7,18.8,65.9,10.0,6.0,2.8,3.1,5.0,0,5,0,0,112.0,4.7,76.0,0.7,13.4,27.3,1,2
100,Nijar,Andalucia,Spain,36.967,-2.2,2026-07-13 10:15,26.3,79.3,1,3.4,5.4,159,SSE,1014.0,29.94,0.0,0.0,74,0,28.0,82.5,26.0,78.7,27.6,81.6,19.5,67.2,10.0,6.0,2.6,3.9,6.2,0,5,0,0,140.0,5.1,66.0,0.9,13.3,27.2,1,2
101,Nerja,Andalucia,Spain,36.733,-3.867,2026-07-13 10:00,25.2,77.4,1,3.6,5.8,211,SSW,1014.0,29.94,0.0,0.0,51,0,25.9,78.6,26.3,79.4,26.8,80.2,14.4,57.9,10.0,6.0,2.5,4.7,7.5,0,2,0,0,105.0,5.1,51.0,0.4,4.0,7.3,1,1
102,Navalmoral De La Mata,Extremadura,Spain,39.9,-5.533,2026-07-13 10:00,23.5,74.4,1,5.6,9.0,241,WSW,1016.0,30.0,0.0,0.0,47,6,17.8,64.0,23.5,74.4,24.9,76.8,11.7,53.0,10.0,6.0,2.0,6.4,10.4,0,2,0,0,110.0,1.6,51.0,0.3,4.8,7.0,1,1
103,Murcia,Murcia,Spain,37.983,-1.117,2026-07-13 10:15,28.3,82.9,1,2.2,3.6,75,ENE,1014.0,29.94,0.0,0.0,74,50,30.7,87.2,28.5,83.2,31.0,87.7,21.0,69.9,10.0,6.0,2.6,6.7,10.8,0,5,0,0,126.0,8.2,69.0,3.0,12.6,37.0,1,2
104,Mula,Murcia,Spain,38.05,-1.5,2026-07-13 10:15,27.0,80.6,1,3.6,5.8,45,NE,1015.0,29.97,0.0,0.0,57,2,27.9,82.2,27.0,80.6,28.1,82.6,17.7,63.9,10.0,6.0,2.7,4.1,6.6,0,3,0,0,106.0,1.6,64.0,0.4,11.6,23.1,1,1
105,Barrio Penacerrada,Comunidad Valenciana,Spain,38.417,-0.45,2026-07-13 10:15,29.4,84.9,1,4.5,7.2,178,S,1013.0,29.91,0.0,0.0,75,75,35.0,95.0,26.4,79.6,28.9,84.1,22.0,71.7,10.0,6.0,2.6,5.1,8.3,0,11,0,0,112.0,7.5,82.0,1.0,11.9,24.6,1,1
106,Motril,Andalucia,Spain,36.75,-3.517,2026-07-13 10:15,26.6,79.9,1,4.7,7.6,227,SW,1015.0,29.96,0.0,0.0,49,0,26.0,78.8,26.6,79.9,27.2,80.9,15.2,59.4,10.0,6.0,2.5,5.6,9.0,0,2,0,0,101.0,3.3,57.0,0.4,4.3,7.8,1,1
107,Moron De La Frontera,Andalucia,Spain,37.133,-5.45,2026-07-13 10:00,22.2,72.0,1,2.2,3.6,56,ENE,1016.0,30.0,0.0,0.0,73,0,24.6,76.3,22.8,73.0,24.9,76.7,15.2,59.3,10.0,6.0,2.1,6.7,10.8,0,4,0,0,106.0,6.0,57.0,0.4,4.8,10.5,1,1
108,Montilla,Andalucia,Spain,37.583,-4.633,2026-07-13 10:15,22.3,72.1,1,2.2,3.6,324,NW,1016.0,30.0,0.0,0.0,73,25,24.7,76.4,22.2,72.0,24.6,76.4,15.2,59.4,10.0,6.0,2.3,6.7,10.8,0,4,0,0,104.0,2.0,53.0,0.4,4.7,9.4,1,1
109,Montijo,Extremadura,Spain,38.917,-6.617,2026-07-13 10:00,22.4,72.3,1,2.2,3.6,232,SW,1016.0,30.0,0.0,0.0,65,0,24.7,76.4,20.8,69.5,20.8,69.5,12.9,55.2,10.0,6.0,2.0,2.6,4.1,0,4,0,0,90.0,2.7,43.0,0.7,4.5,8.3,1,1
110,Moncada,Comunidad Valenciana,Spain,39.55,-0.4,2026-07-13 10:15,27.2,81.0,1,5.1,8.3,112,ESE,1013.0,29.91,0.0,0.0,74,75,29.0,84.2,27.7,81.8,29.7,85.4,20.3,68.6,10.0,6.0,2.7,5.9,9.5,0,4,0,0,133.0,12.7,73.0,2.7,11.5,30.4,1,1
111,Molina De Segura,Murcia,Spain,38.05,-1.2,2026-07-13 10:15,28.3,82.9,1,2.2,3.6,61,ENE,1014.0,29.94,0.0,0.0,74,50,30.6,87.1,28.3,83.0,30.6,87.2,20.7,69.3,10.0,6.0,2.6,6.7,10.8,0,5,0,0,121.0,6.4,69.0,3.3,12.6,35.0,1,2
112,Moguer,Andalucia,Spain,37.276,-6.836,2026-07-13 10:00,21.9,71.5,1,3.8,6.1,354,N,1016.0,30.01,0.0,0.0,62,4,16.7,62.1,21.9,71.5,24.6,76.2,14.3,57.7,10.0,6.0,1.9,4.7,7.5,0,4,0,0,97.0,4.6,45.0,3.5,3.9,7.2,1,1
113,Mogan,Canarias,Spain,27.883,-15.717,2026-07-13 09:15,22.1,71.8,1,2.2,3.6,15,NNE,1016.0,30.0,0.0,0.0,69,25,24.6,76.3,21.8,71.2,24.5,76.1,15.8,60.3,10.0,6.0,1.1,2.3,3.7,0,5,0,0,100.0,1.6,73.0,0.9,10.5,17.1,1,1
114,Mislata,Comunidad Valenciana,Spain,39.467,-0.417,2026-07-13 10:15,27.2,81.0,1,4.3,6.8,108,ESE,1013.0,29.91,0.0,0.0,74,75,29.7,85.4,26.7,80.1,28.9,84.0,21.1,70.0,10.0,6.0,2.7,5.3,8.5,0,6,0,0,146.0,17.7,77.0,2.8,12.0,30.1,1,2
115,Mijas,Andalucia,Spain,36.6,-4.633,2026-07-13 10:00,22.9,73.2,1,2.9,4.7,314,NW,1015.0,29.98,0.0,0.0,53,4,18.0,64.4,22.9,73.2,24.7,76.5,12.7,54.9,10.0,6.0,2.4,4.7,7.6,0,2,0,0,113.0,3.1,62.0,0.3,4.1,7.2,1,1
116,Miguelturra,Castilla-La Mancha,Spain,38.967,-3.883,2026-07-13 10:00,22.3,72.1,1,5.4,8.6,245,WSW,1016.0,30.01,0.0,0.0,39,0,16.6,61.9,22.3,72.1,24.1,75.3,7.8,46.1,10.0,6.0,2.4,6.2,9.9,0,1,0,0,111.0,1.8,64.0,0.2,3.8,7.2,1,1
117,Merida,Extremadura,Spain,38.917,-6.333,2026-07-13 10:15,22.1,71.8,1,3.4,5.4,250,WSW,1016.0,30.0,0.0,0.0,65,0,24.6,76.3,21.0,69.9,24.4,76.0,12.8,55.0,10.0,6.0,2.0,3.9,6.2,0,4,0,0,90.0,2.5,43.0,0.6,4.7,8.6,1,1
118,Melilla,Andalucia,Spain,35.317,-2.95,2026-07-13 10:15,26.0,78.8,1,6.7,10.8,302,WNW,1015.0,29.97,0.0,0.0,58,0,27.5,81.4,25.0,77.0,26.4,79.6,18.0,64.3,10.0,6.0,4.8,8.2,13.2,0,4,0,0,111.0,2.7,67.0,2.0,5.2,10.6,1,1
119,Mazarron,Murcia,Spain,37.6,-1.317,2026-07-13 10:00,28.3,82.9,1,2.5,4.0,96,E,1014.0,29.94,0.0,0.0,74,50,31.6,88.9,26.5,79.7,28.5,83.4,20.8,69.5,10.0,6.0,2.6,2.8,4.6,0,6,0,0,101.0,2.2,80.0,0.7,11.8,29.1,1,1
120,Maspalomas,Canarias,Spain,27.75,-15.567,2026-07-13 09:00,22.1,71.8,1,6.5,10.4,24,NNE,1016.0,30.0,0.0,0.0,69,25,24.6,76.3,21.8,71.2,24.5,76.2,15.4,59.7,10.0,6.0,1.1,7.6,12.2,0,5,0,0,109.0,1.2,77.0,0.9,11.1,18.3,1,1
121,Masamagrell,Comunidad Valenciana,Spain,39.567,-0.333,2026-07-13 10:15,27.2,81.0,1,4.3,6.8,108,ESE,1013.0,29.91,0.0,0.0,74,75,29.7,85.4,26.7,80.1,28.9,84.0,21.1,70.0,10.0,6.0,2.7,5.3,8.5,0,6,0,0,146.0,17.7,77.0,2.8,12.0,30.1,1,2
122,Martos,Andalucia,Spain,37.717,-3.967,2026-07-13 10:00,21.8,71.2,1,2.7,4.3,10,N,1016.0,30.02,0.0,0.0,52,3,16.9,62.4,21.8,71.2,24.4,76.0,11.6,52.8,10.0,6.0,2.5,3.1,5.0,0,2,0,0,112.0,3.5,54.0,0.5,4.5,8.7,1,1
123,La Cabaneta,Islas Baleares,Spain,39.617,2.75,2026-07-13 10:15,29.0,84.2,1,8.3,13.3,193,SSW,1012.0,29.88,0.0,0.0,75,25,30.0,86.0,30.4,86.8,32.1,89.8,18.7,65.7,10.0,6.0,2.9,9.5,15.3,0,2,0,0,114.0,3.3,79.0,0.5,9.7,22.7,1,1
124,Marchena,Andalucia,Spain,37.333,-5.4,2026-07-13 10:00,22.2,72.0,1,2.2,3.6,56,ENE,1016.0,30.0,0.0,0.0,73,0,24.6,76.3,22.8,73.0,24.9,76.7,15.2,59.3,10.0,6.0,2.1,6.7,10.8,0,4,0,0,106.0,6.0,57.0,0.4,4.8,10.5,1,1
125,Marbella,Andalucia,Spain,36.517,-4.883,2026-07-13 10:00,25.2,77.4,1,2.2,3.6,199,SSW,1014.0,29.94,0.0,0.0,51,0,25.8,78.5,25.2,77.4,25.9,78.5,12.9,55.3,10.0,6.0,2.3,6.7,10.8,0,1,0,0,119.0,4.6,65.0,0.3,4.2,7.2,1,1
126,Maracena,Andalucia,Spain,37.2,-3.633,2026-07-13 10:15,21.2,70.2,1,2.2,3.6,240,WSW,1018.0,30.06,0.0,0.0,60,0,21.2,70.2,24.0,75.1,24.7,76.4,8.9,47.9,10.0,6.0,2.6,2.6,4.1,0,1,0,0,98.0,7.3,56.0,0.8,5.4,11.8,1,1
127,Manzanares,Castilla-La Mancha,Spain,39.0,-3.367,2026-07-13 10:15,22.9,73.3,1,4.5,7.2,236,WSW,1016.0,30.0,0.0,0.0,39,0,17.5,63.5,22.9,73.3,24.3,75.7,8.5,47.2,10.0,6.0,2.5,5.1,8.3,0,1,0,0,115.0,2.2,68.0,0.7,3.8,7.1,1,1
128,Manises,Comunidad Valenciana,Spain,39.483,-0.45,2026-07-13 10:15,27.2,81.0,1,5.1,8.3,112,ESE,1013.0,29.91,0.0,0.0,74,75,29.0,84.2,27.7,81.8,29.7,85.4,20.3,68.6,10.0,6.0,2.7,5.9,9.5,0,4,0,0,133.0,12.7,73.0,2.7,11.5,30.4,1,1
129,Manacor,Islas Baleares,Spain,39.567,3.2,2026-07-13 10:15,29.1,84.4,1,8.5,13.7,128,SE,1012.0,29.88,0.0,0.0,75,25,31.3,88.3,29.2,84.5,31.4,88.5,20.2,68.4,10.0,6.0,2.9,9.8,15.7,0,3,0,0,106.0,1.1,86.0,0.2,10.6,22.5,1,1
130,Malaga,Andalucia,Spain,36.717,-4.417,2026-07-13 10:15,25.4,77.7,1,4.9,7.9,292,WNW,1014.0,29.94,0.0,0.0,51,0,25.9,78.5,25.9,78.7,26.3,79.3,12.8,55.1,10.0,6.0,2.4,5.7,9.1,0,1,0,0,116.0,8.1,50.0,0.7,5.4,9.2,1,1
131,San Juan De Aznalfarache,Andalucia,Spain,37.367,-6.033,2026-07-13 10:15,23.2,73.8,1,4.3,6.8,93,E,1015.0,29.97,0.0,0.0,73,0,25.1,77.1,22.6,72.7,24.8,76.6,15.9,60.7,10.0,6.0,2.1,4.9,7.9,0,5,0,0,144.0,23.9,39.0,2.9,9.1,15.9,1,1
132,Mairena Del Alcor,Andalucia,Spain,37.367,-5.75,2026-07-13 10:15,23.2,73.8,1,3.8,6.1,92,E,1015.0,29.97,0.0,0.0,73,0,25.1,77.1,22.6,72.7,24.8,76.6,15.9,60.6,10.0,6.0,2.1,4.4,7.1,0,5,0,0,122.0,9.4,41.0,2.0,5.8,13.4,1,1
133,Vilacarlos,Islas Baleares,Spain,39.883,4.267,2026-07-13 10:15,28.1,82.6,1,17.0,27.4,98,E,1013.0,29.91,0.0,0.0,84,75,32.6,90.8,26.2,79.2,29.0,84.2,22.6,72.8,10.0,6.0,3.0,23.6,38.0,0,11,0,0,105.0,1.1,89.0,0.3,11.2,22.0,1,1
134,Lucena,Andalucia,Spain,37.4,-4.483,2026-07-13 10:15,22.3,72.1,1,2.2,3.6,324,NW,1016.0,30.0,0.0,0.0,73,25,24.7,76.4,22.2,72.0,24.6,76.4,15.2,59.4,10.0,6.0,2.3,6.7,10.8,0,4,0,0,104.0,2.0,53.0,0.4,4.7,9.4,1,1
135,Los Palacios Y Villafranca,Andalucia,Spain,37.161,-5.924,2026-07-13 10:15,22.0,71.6,1,2.2,3.6,114,ESE,1016.0,30.0,0.0,0.0,73,0,24.6,76.2,22.6,72.7,24.8,76.6,15.6,60.2,10.0,6.0,2.1,6.7,10.8,0,4,0,0,112.0,10.5,51.0,0.6,5.4,12.3,1,1
136,Argual,Canarias,Spain,28.65,-17.917,2026-07-13 09:15,22.1,71.8,1,8.5,13.7,23,NNE,1017.0,30.03,0.0,0.0,61,0,24.6,76.3,20.4,68.7,20.4,68.7,15.5,59.9,10.0,6.0,0.9,9.8,15.7,0,7,0,0,88.0,0.2,76.0,0.3,12.1,19.8,1,2
137,Los Barrios,Andalucia,Spain,36.183,-5.5,2026-07-13 10:15,22.3,72.1,1,8.5,13.7,268,W,1015.0,29.97,0.0,0.0,78,25,24.7,76.4,23.0,73.5,25.0,77.0,16.5,61.8,10.0,6.0,2.2,9.8,15.7,0,5,0,0,114.0,6.2,58.0,1.2,4.4,8.1,1,1
138,Alcazares,Murcia,Spain,37.75,-0.85,2026-07-13 10:15,28.3,82.9,1,4.7,7.6,167,SSE,1014.0,29.94,0.0,0.0,74,50,31.9,89.4,26.2,79.2,28.4,83.0,21.1,69.9,10.0,6.0,2.6,5.8,9.3,0,6,0,0,100.0,5.6,68.0,2.0,8.7,23.7,1,1
139,Lorca,Murcia,Spain,37.667,-1.7,2026-07-13 10:00,26.8,80.3,1,2.7,4.3,77,ENE,1015.0,29.96,0.0,0.0,66,3,27.6,81.7,26.8,80.3,28.5,83.4,19.8,67.7,10.0,6.0,2.6,3.1,5.0,0,4,0,0,114.0,3.6,71.0,0.6,13.1,27.2,1,2
140,Lora Del Rio,Andalucia,Spain,37.65,-5.533,2026-07-13 10:15,22.4,72.4,1,2.2,3.6,95,E,1016.0,30.02,0.0,0.0,53,3,17.7,63.9,22.5,72.4,24.6,76.3,12.3,54.1,10.0,6.0,2.1,2.6,4.1,0,2,0,0,99.0,0.7,58.0,0.1,2.9,5.6,1,1
141,Loja,Andalucia,Spain,37.167,-4.15,2026-07-13 10:15,21.1,70.0,1,2.7,4.3,211,SSW,1017.0,30.03,0.0,0.0,64,0,21.1,70.0,25.0,76.9,25.0,76.9,7.9,46.3,10.0,6.0,2.5,3.5,5.6,0,1,0,0,103.0,1.5,74.0,0.2,3.5,5.8,1,1
142,Lluchmayor,Islas Baleares,Spain,39.483,2.9,2026-07-13 10:15,29.0,84.2,1,8.3,13.3,193,SSW,1012.0,29.88,0.0,0.0,75,25,30.0,86.0,30.4,86.8,32.1,89.8,18.7,65.7,10.0,6.0,2.9,9.5,15.3,0,2,0,0,114.0,3.3,79.0,0.5,9.7,22.7,1,1
143,Lliria,Comunidad Valenciana,Spain,39.626,-0.594,2026-07-13 10:15,27.2,81.0,1,5.1,8.3,112,ESE,1013.0,29.91,0.0,0.0,74,75,29.0,84.2,27.7,81.8,29.7,85.4,20.3,68.6,10.0,6.0,2.7,5.9,9.5,0,4,0,0,133.0,12.7,73.0,2.7,11.5,30.4,1,1
144,Linares,Andalucia,Spain,38.083,-3.633,2026-07-13 10:00,22.0,71.6,1,2.2,3.6,261,W,1016.0,30.02,0.0,0.0,53,3,17.3,63.1,22.0,71.6,24.5,76.1,12.0,53.5,10.0,6.0,2.5,2.6,4.1,0,2,0,0,119.0,3.2,58.0,1.7,5.3,10.5,1,1
145,Lepe,Andalucia,Spain,37.25,-7.2,2026-07-13 10:00,21.9,71.4,1,4.3,6.8,351,N,1016.0,30.01,0.0,0.0,63,4,16.5,61.7,21.9,71.4,24.5,76.2,14.5,58.2,10.0,6.0,1.9,5.2,8.4,0,4,0,0,97.0,4.6,45.0,3.5,3.9,7.2,1,1
146,Caserio Zancarron,Andalucia,Spain,36.917,-6.083,2026-07-13 10:15,23.3,73.9,1,2.9,4.7,301,WNW,1015.0,29.97,0.0,0.0,73,0,25.1,77.1,22.8,73.0,24.8,76.7,15.0,59.0,10.0,6.0,2.1,3.4,5.4,0,4,0,0,107.0,4.0,51.0,0.8,4.9,10.7,1,1
147,La Union,Murcia,Spain,37.617,-0.867,2026-07-13 10:15,28.3,82.9,1,5.6,9.0,189,S,1014.0,29.94,0.0,0.0,74,50,32.2,90.0,25.3,77.5,27.2,81.0,20.6,69.2,10.0,6.0,2.7,7.8,12.5,0,7,0,0,94.0,5.2,71.0,1.2,6.7,19.7,1,1
148,Las Torres De Cotillas,Andalucia,Spain,38.033,-1.233,2026-07-13 10:15,28.3,82.9,1,2.2,3.6,61,ENE,1014.0,29.94,0.0,0.0,74,50,30.6,87.1,28.3,83.0,30.6,87.2,20.7,69.3,10.0,6.0,2.6,6.7,10.8,0,5,0,0,121.0,6.4,69.0,3.3,12.6,35.0,1,2
149,Las Palmas,Canarias,Spain,28.1,-15.417,2026-07-13 09:15,22.1,71.8,1,7.8,12.6,21,NNE,1016.0,30.0,0.0,0.0,69,25,24.6,76.3,20.4,68.8,20.4,68.8,15.3,59.6,10.0,6.0,1.1,9.3,14.9,0,7,0,0,100.0,1.6,73.0,0.9,10.5,17.1,1,1
150,La Solana,Castilla-La Mancha,Spain,38.933,-3.233,2026-07-13 10:00,22.0,71.6,1,3.4,5.4,230,SW,1016.0,30.01,0.0,0.0,42,2,16.9,62.4,22.0,71.6,24.1,75.4,8.6,47.5,10.0,6.0,2.6,4.1,6.7,0,1,0,0,113.0,1.7,60.0,0.8,4.1,7.0,1,1
151,Las Cabezas De San Juan,Andalucia,Spain,36.983,-5.933,2026-07-13 10:15,22.0,71.6,1,2.2,3.6,114,ESE,1016.0,30.0,0.0,0.0,73,0,24.6,76.2,22.6,72.7,24.8,76.6,15.6,60.2,10.0,6.0,2.1,6.7,10.8,0,4,0,0,112.0,10.5,51.0,0.6,5.4,12.3,1,1
152,La Roda,Castilla-La Mancha,Spain,39.217,-2.15,2026-07-13 10:15,23.4,74.1,1,8.9,14.4,283,WNW,1017.0,30.03,0.0,0.0,50,0,24.1,75.3,24.2,75.7,24.5,76.1,6.9,44.5,10.0,6.0,2.7,10.3,16.6,0,1,0,0,107.0,1.9,63.0,0.5,4.1,7.4,1,1
153,La Rinconada,Andalucia,Spain,37.483,-5.967,2026-07-13 10:15,23.2,73.8,1,3.8,6.1,92,E,1015.0,29.97,0.0,0.0,73,0,25.1,77.1,22.6,72.7,24.8,76.6,15.9,60.6,10.0,6.0,2.1,4.4,7.1,0,5,0,0,122.0,9.4,41.0,2.0,5.8,13.4,1,1
154,La Orotava,Canarias,Spain,28.383,-16.517,2026-07-13 09:00,20.0,68.0,1,3.4,5.4,47,NE,1019.0,30.08,0.0,0.0,72,0,15.0,59.0,20.0,68.0,20.0,68.0,14.9,58.8,10.0,6.0,1.0,3.9,6.2,0,7,0,0,100.0,1.6,69.0,1.0,9.3,15.2,1,1
155,La Oliva,Canarias,Spain,28.6,-13.933,2026-07-13 09:00,20.8,69.4,1,9.2,14.8,19,NNE,1017.0,30.04,0.0,0.0,78,22,13.9,57.0,20.8,69.4,20.8,69.4,16.9,62.4,10.0,6.0,1.3,12.6,20.2,0,10,0,0,90.0,0.6,81.0,0.6,9.7,15.9,1,1
156,La Nucia,Comunidad Valenciana,Spain,38.617,-0.117,2026-07-13 10:15,29.4,84.9,1,4.7,7.6,179,S,1013.0,29.91,0.01,0.0,75,75,34.5,94.0,27.1,80.8,29.8,85.6,22.1,71.8,10.0,6.0,2.6,5.4,8.7,0,16,0,0,116.0,2.4,88.0,0.5,12.0,24.9,1,2
157,La Linea,Andalucia,Spain,36.168,-5.352,2026-07-13 10:00,20.8,69.5,1,9.6,15.5,267,W,1016.0,29.99,0.0,0.0,70,4,13.8,56.8,20.8,69.5,20.8,69.5,15.2,59.4,10.0,6.0,2.3,16.6,26.8,0,6,0,0,123.0,12.8,60.0,2.8,4.7,8.6,1,1
158,Caserio Torre Baba,Comunidad Valenciana,Spain,39.583,-0.533,2026-07-13 10:15,27.2,81.0,1,5.1,8.3,112,ESE,1013.0,29.91,0.0,0.0,74,75,29.0,84.2,27.7,81.8,29.7,85.4,20.3,68.6,10.0,6.0,2.7,5.9,9.5,0,4,0,0,133.0,12.7,73.0,2.7,11.5,30.4,1,1
159,La Carolina,Andalucia,Spain,38.25,-3.617,2026-07-13 10:00,22.0,71.6,1,2.2,3.6,261,W,1016.0,30.02,0.0,0.0,53,3,17.3,63.1,22.0,71.6,24.5,76.1,12.0,53.5,10.0,6.0,2.5,2.6,4.1,0,2,0,0,119.0,3.2,58.0,1.7,5.3,10.5,1,1
160,La Algaba,Andalucia,Spain,37.467,-6.017,2026-07-13 10:15,23.2,73.8,1,4.3,6.8,93,E,1015.0,29.97,0.0,0.0,73,0,25.1,77.1,22.6,72.7,24.8,76.6,15.9,60.7,10.0,6.0,2.1,4.9,7.9,0,5,0,0,144.0,23.9,39.0,2.9,9.1,15.9,1,1
161,Jumilla,Murcia,Spain,38.483,-1.283,2026-07-13 10:00,25.3,77.6,1,4.9,7.9,349,N,1015.0,29.98,0.0,0.0,38,4,19.8,67.6,25.3,77.6,25.5,77.8,9.9,49.9,10.0,6.0,2.8,5.9,9.5,0,1,0,0,102.0,1.4,63.0,0.3,7.2,15.8,1,1
162,Jerez,Andalucia,Spain,36.683,-6.133,2026-07-13 10:00,23.2,73.8,1,3.6,5.8,313,NW,1015.0,29.97,0.0,0.0,73,0,25.0,77.1,22.5,72.5,24.7,76.5,15.1,59.2,10.0,6.0,2.1,4.3,6.8,0,4,0,0,110.0,6.6,47.0,1.6,4.9,9.9,1,1
163,Javea,Castilla-La Mancha,Spain,38.783,0.167,2026-07-13 10:15,26.3,79.4,1,4.3,6.8,197,SSW,1014.0,29.95,0.0,0.0,77,5,25.8,78.4,26.3,79.4,28.8,83.9,22.0,71.7,10.0,6.0,2.7,5.3,8.5,0,8,0,0,114.0,2.7,90.0,0.4,13.4,29.6,1,2
164,Jativa,Comunidad Valenciana,Spain,38.983,-0.517,2026-07-13 10:15,27.2,81.0,1,2.5,4.0,95,E,1013.0,29.91,0.0,0.0,74,75,28.8,83.8,28.2,82.7,30.3,86.5,20.3,68.5,10.0,6.0,2.7,2.8,4.6,0,4,0,0,128.0,4.2,83.0,0.6,12.2,29.2,1,2
165,Jaen,Andalucia,Spain,37.767,-3.783,2026-07-13 10:00,21.7,71.1,1,2.9,4.7,10,N,1016.0,30.02,0.0,0.0,52,3,16.8,62.2,21.7,71.1,24.4,75.9,11.4,52.4,10.0,6.0,2.5,3.4,5.4,0,2,0,0,112.0,3.5,54.0,0.5,4.5,8.7,1,1
166,Caserio Playa Del Hoyo,Andalucia,Spain,37.2,-7.283,2026-07-13 10:00,23.4,74.1,1,2.2,3.6,344,NNW,1017.0,30.02,0.0,0.0,57,2,18.8,65.8,23.4,74.1,25.1,77.1,14.5,58.2,10.0,6.0,3.8,6.7,10.8,0,3,0,0,92.0,1.6,55.0,0.2,3.3,7.3,1,1
167,Ingenio,Canarias,Spain,27.917,-15.433,2026-07-13 09:00,20.5,68.9,1,9.8,15.8,18,NNE,1018.0,30.06,0.0,0.0,72,0,13.4,56.1,20.5,68.9,20.5,68.9,15.3,59.6,10.0,6.0,1.1,11.6,18.7,0,6,0,0,97.0,1.3,79.0,0.9,11.2,18.6,1,1
168,Inca,Islas Baleares,Spain,39.717,2.9,2026-07-13 10:00,30.3,86.5,1,6.0,9.7,170,S,1013.0,29.93,0.0,0.0,46,5,30.9,87.6,30.3,86.5,31.4,88.4,17.5,63.4,10.0,6.0,2.9,7.0,11.2,0,1,0,0,108.0,2.0,86.0,0.3,9.4,22.8,1,1
169,Garachico,Canarias,Spain,28.367,-16.733,2026-07-13 09:15,22.0,71.6,1,4.5,7.2,60,ENE,1017.0,30.03,0.0,0.0,57,25,24.6,76.2,21.2,70.2,24.4,75.9,15.9,60.7,10.0,6.0,1.0,5.1,8.3,0,6,0,0,91.0,0.8,74.0,0.6,9.5,15.8,1,1
170,Ibiza,Islas Baleares,Spain,38.9,1.433,2026-07-13 10:15,29.2,84.6,1,4.7,7.6,213,SSW,1013.0,29.91,0.0,0.0,79,75,35.3,95.5,27.0,80.7,30.4,86.8,23.4,74.1,10.0,6.0,2.7,5.7,9.2,0,11,0,0,113.0,7.0,82.0,0.8,13.0,19.4,1,2
171,Ibi,Comunidad Valenciana,Spain,38.633,-0.567,2026-07-13 10:15,26.3,79.4,1,2.5,4.0,202,SSW,1015.0,29.97,0.0,0.0,57,3,25.2,77.4,26.3,79.4,27.3,81.2,17.0,62.6,10.0,6.0,2.8,2.8,4.6,0,3,0,0,108.0,3.7,76.0,0.4,11.9,35.3,1,1
172,Huercal-Overa,Andalucia,Spain,37.383,-1.95,2026-07-13 10:00,26.1,79.0,1,2.7,4.3,100,E,1015.0,29.98,0.0,0.0,55,2,24.5,76.1,26.1,79.0,27.1,80.7,16.5,61.8,10.0,6.0,2.7,3.1,5.0,0,3,0,0,103.0,2.1,61.0,0.6,6.6,14.6,1,1
173,Las Tres Ventanas,Andalucia,Spain,37.267,-6.933,2026-07-13 10:00,21.9,71.5,1,3.8,6.1,354,N,1016.0,30.01,0.0,0.0,62,4,16.7,62.1,21.9,71.5,24.6,76.2,14.3,57.7,10.0,6.0,1.9,4.7,7.5,0,4,0,0,97.0,4.6,45.0,3.5,3.9,7.2,1,1
174,Hellin,Castilla-La Mancha,Spain,38.517,-1.683,2026-07-13 10:00,25.3,77.6,1,4.9,7.9,349,N,1015.0,29.98,0.0,0.0,38,4,19.8,67.6,25.3,77.6,25.5,77.8,9.9,49.9,10.0,6.0,2.8,5.9,9.5,0,1,0,0,102.0,1.4,63.0,0.3,7.2,15.8,1,1
175,Chabaica,Canarias,Spain,28.317,-16.417,2026-07-13 09:15,17.4,63.2,1,2.2,3.6,48,NE,1019.0,30.09,0.0,0.0,69,0,12.7,54.9,17.4,63.2,17.4,63.2,11.6,53.0,10.0,6.0,1.1,2.9,4.6,0,6,0,0,99.0,1.6,69.0,1.0,9.3,15.2,1,1
176,Chio,Canarias,Spain,28.217,-16.783,2026-07-13 09:15,17.0,62.6,1,2.2,3.6,29,NNE,1019.0,30.09,0.0,0.0,94,25,17.0,62.6,18.6,65.4,18.6,65.4,12.7,54.9,10.0,6.0,1.0,6.7,10.8,0,5,0,0,108.0,0.8,74.0,0.6,9.5,15.8,1,1
177,El Moncayo,Comunidad Valenciana,Spain,38.083,-0.65,2026-07-13 10:00,29.3,84.7,1,4.9,7.9,173,S,1013.0,29.91,0.0,0.0,75,75,34.0,93.1,27.0,80.6,29.5,85.1,21.7,71.1,10.0,6.0,2.6,6.0,9.6,0,7,0,0,107.0,5.6,79.0,1.8,14.4,33.7,1,2
178,Guadix,Andalucia,Spain,37.3,-3.133,2026-07-13 10:15,22.5,72.5,1,3.8,6.1,192,SSW,1017.0,30.02,0.0,0.0,29,0,17.3,63.1,22.5,72.6,23.4,74.1,3.8,38.9,10.0,6.0,2.8,4.4,7.1,0,0,0,0,77.0,0.3,69.0,0.2,3.9,13.3,1,1
179,Granadilla De Abona,Canarias,Spain,28.117,-16.583,2026-07-13 09:15,22.0,71.6,1,6.5,10.4,46,NE,1017.0,30.03,0.0,0.0,57,25,24.5,76.2,21.2,70.1,24.4,75.9,16.2,61.1,10.0,6.0,1.0,7.5,12.0,0,7,0,0,112.0,1.4,72.0,1.0,10.3,17.0,1,1
180,Granada,Andalucia,Spain,37.183,-3.6,2026-07-13 10:15,21.2,70.2,1,2.2,3.6,240,WSW,1018.0,30.06,0.0,0.0,60,0,21.2,70.2,24.0,75.1,24.7,76.4,8.9,47.9,10.0,6.0,2.6,2.6,4.1,0,1,0,0,98.0,7.3,56.0,0.8,5.4,11.8,1,1
181,Gandia,Comunidad Valenciana,Spain,38.967,-0.183,2026-07-13 10:15,27.2,81.0,1,2.5,4.0,78,E,1013.0,29.91,0.0,0.0,74,75,29.0,84.3,28.0,82.4,30.3,86.5,20.8,69.4,10.0,6.0,2.7,2.8,4.6,0,5,0,0,118.0,3.7,89.0,0.5,13.4,31.8,1,2
182,Galdar,Canarias,Spain,28.15,-15.65,2026-07-13 09:15,22.1,71.8,1,7.8,12.6,21,NNE,1016.0,30.0,0.0,0.0,69,25,24.6,76.3,20.4,68.8,20.4,68.8,15.3,59.6,10.0,6.0,1.1,9.3,14.9,0,7,0,0,100.0,1.6,73.0,0.9,10.5,17.1,1,1
183,Fuengirola,Andalucia,Spain,36.533,-4.617,2026-07-13 10:15,25.4,77.7,1,2.5,4.0,297,WNW,1014.0,29.94,0.0,0.0,51,0,26.4,79.5,24.2,75.5,25.5,77.8,14.8,58.6,10.0,6.0,2.3,3.3,5.3,0,3,0,0,113.0,3.1,62.0,0.3,4.1,7.2,1,1
184,Felanitx,Islas Baleares,Spain,39.467,3.133,2026-07-13 10:15,29.1,84.4,1,11.2,18.0,107,ESE,1012.0,29.88,0.0,0.0,75,25,33.8,92.9,27.4,81.3,30.4,86.6,22.5,72.4,10.0,6.0,2.9,12.9,20.7,0,7,0,0,104.0,0.8,92.0,0.2,9.1,21.0,1,1
185,Estepona,Andalucia,Spain,36.433,-5.133,2026-07-13 10:15,22.3,72.1,1,4.5,7.2,253,WSW,1015.0,29.97,0.0,0.0,78,25,24.4,75.9,25.5,77.9,26.0,78.8,13.1,55.6,10.0,6.0,2.3,5.1,8.3,0,1,0,0,117.0,3.6,54.0,0.2,4.4,7.5,1,1
186,El Viso Del Alcor,Andalucia,Spain,37.383,-5.717,2026-07-13 10:15,23.2,73.8,1,3.8,6.1,92,E,1015.0,29.97,0.0,0.0,73,0,25.1,77.1,22.6,72.7,24.8,76.6,15.9,60.6,10.0,6.0,2.1,4.4,7.1,0,5,0,0,122.0,9.4,41.0,2.0,5.8,13.4,1,1
187,El Puerto De Santa Maria,Andalucia,Spain,36.6,-6.233,2026-07-13 10:15,22.1,71.8,1,3.8,6.1,329,NNW,1016.0,30.0,0.0,0.0,83,50,24.6,76.3,22.1,71.8,24.6,76.3,16.3,61.3,10.0,6.0,2.0,4.9,7.8,0,6,0,0,103.0,4.1,51.0,0.9,4.6,7.8,1,1
188,El Grao De Gandia,Comunidad Valenciana,Spain,39.967,0.017,2026-07-13 10:00,27.2,81.0,1,4.0,6.5,84,E,1014.0,29.95,0.0,0.0,71,41,29.4,84.9,27.2,81.0,29.7,85.4,21.5,70.7,10.0,6.0,2.7,4.6,7.5,0,9,0,0,117.0,12.2,72.0,4.8,11.0,26.9,1,1
189,El Ejido,Andalucia,Spain,36.783,-2.817,2026-07-13 10:15,26.3,79.3,1,4.7,7.6,193,SSW,1014.0,29.94,0.0,0.0,74,0,27.8,82.1,25.5,78.0,26.9,80.5,18.5,65.3,10.0,6.0,2.6,5.4,8.7,0,4,0,0,105.0,4.8,56.0,0.5,6.0,13.0,1,1
190,Elda,Comunidad Valenciana,Spain,38.483,-0.783,2026-07-13 10:15,25.6,78.1,1,2.7,4.3,162,SSE,1015.0,29.98,0.0,0.0,66,2,22.5,72.5,25.6,78.1,27.1,80.7,18.8,65.9,10.0,6.0,2.8,3.1,5.0,0,5,0,0,112.0,4.7,76.0,0.7,13.4,27.3,1,2
191,Elche,Comunidad Valenciana,Spain,38.25,-0.7,2026-07-13 10:00,29.3,84.7,1,3.1,5.0,149,SSE,1013.0,29.91,0.0,0.0,75,75,33.3,92.0,27.5,81.4,29.9,85.8,21.4,70.4,10.0,6.0,2.6,3.6,5.8,0,9,0,0,125.0,10.5,67.0,1.0,15.3,32.4,1,2
192,Arahal,Andalucia,Spain,37.267,-5.55,2026-07-13 10:15,22.0,71.6,1,2.2,3.6,56,ENE,1016.0,30.0,0.0,0.0,73,0,24.6,76.2,22.8,73.0,24.9,76.7,15.2,59.3,10.0,6.0,2.1,6.7,10.8,0,4,0,0,106.0,6.0,57.0,0.4,4.8,10.5,1,1
193,Ecija,Andalucia,Spain,37.533,-5.083,2026-07-13 10:15,22.0,71.6,1,2.2,3.6,358,N,1016.0,30.0,0.0,0.0,73,0,24.6,76.2,22.3,72.1,24.7,76.4,15.5,59.9,10.0,6.0,2.2,6.7,10.8,0,5,0,0,109.0,3.4,47.0,0.5,5.0,10.7,1,1
194,Dos Hermanas,Andalucia,Spain,37.284,-5.924,2026-07-13 10:15,23.2,73.8,1,3.4,5.4,99,E,1015.0,29.97,0.0,0.0,73,0,25.1,77.1,22.6,72.7,24.8,76.6,15.9,60.7,10.0,6.0,2.1,3.9,6.2,0,5,0,0,122.0,11.6,42.0,1.6,7.2,14.2,1,1
195,Don Benito,Extremadura,Spain,38.95,-5.867,2026-07-13 10:15,22.0,71.6,1,4.0,6.5,259,W,1016.0,30.02,0.0,0.0,54,4,16.7,62.1,22.0,71.6,24.5,76.1,12.2,54.0,10.0,6.0,2.1,4.6,7.5,0,3,0,0,91.0,1.8,48.0,0.3,4.4,7.1,1,1
196,Denia,Comunidad Valenciana,Spain,38.85,0.117,2026-07-13 10:00,26.2,79.2,1,3.1,5.0,189,S,1014.0,29.95,0.0,0.0,77,4,25.3,77.5,26.2,79.2,28.6,83.5,21.8,71.2,10.0,6.0,2.7,3.9,6.3,0,8,0,0,114.0,2.9,86.0,0.5,10.7,27.1,1,1
197,Daimiel,Castilla-La Mancha,Spain,39.067,-3.617,2026-07-13 10:15,22.9,73.3,1,4.5,7.2,236,WSW,1016.0,30.0,0.0,0.0,39,0,17.5,63.5,22.9,73.3,24.3,75.7,8.5,47.2,10.0,6.0,2.5,5.1,8.3,0,1,0,0,115.0,2.2,68.0,0.7,3.8,7.1,1,1
198,Cullera,Andalucia,Spain,39.167,-0.25,2026-07-13 10:15,27.2,81.0,1,2.5,4.0,95,E,1013.0,29.91,0.0,0.0,74,75,28.8,83.8,28.2,82.7,30.3,86.5,20.3,68.5,10.0,6.0,2.7,2.8,4.6,0,4,0,0,128.0,4.2,83.0,0.6,12.2,29.2,1,2
199,Paterna,Comunidad Valenciana,Spain,39.5,-0.433,2026-07-13 10:15,27.2,81.0,1,5.1,8.3,112,ESE,1013.0,29.91,0.0,0.0,74,75,29.0,84.2,27.7,81.8,29.7,85.4,20.3,68.6,10.0,6.0,2.7,5.9,9.5,0,4,0,0,133.0,12.7,73.0,2.7,11.5,30.4,1,1
200,Crevillente,Comunidad Valenciana,Spain,38.25,-0.8,2026-07-13 10:15,29.4,84.9,1,3.1,5.0,149,SSE,1013.0,29.91,0.0,0.0,75,75,33.5,92.4,27.5,81.4,29.9,85.8,21.4,70.4,10.0,6.0,2.6,3.6,5.8,0,9,0,0,125.0,10.5,67.0,1.0,15.3,32.4,1,2
201,Coria Del Rio,Andalucia,Spain,37.286,-6.052,2026-07-13 10:15,23.2,73.8,1,3.4,5.4,99,E,1015.0,29.97,0.0,0.0,73,0,25.1,77.1,22.6,72.7,24.8,76.6,15.9,60.7,10.0,6.0,2.1,3.9,6.2,0,5,0,0,122.0,11.6,42.0,1.6,7.2,14.2,1,1
202,Cordoba,Andalucia,Spain,37.883,-4.767,2026-07-13 10:00,22.2,72.0,1,2.2,3.6,76,ENE,1016.0,30.0,0.0,0.0,73,25,24.6,76.2,23.3,74.0,25.0,77.0,13.7,56.7,10.0,6.0,2.3,6.7,10.8,0,3,0,0,115.0,8.2,44.0,0.9,5.7,12.9,1,1
203,Conil,Andalucia,Spain,36.276,-6.088,2026-07-13 10:15,23.3,73.9,1,4.5,7.2,325,NW,1015.0,29.97,0.0,0.0,73,0,25.2,77.3,22.4,72.2,24.7,76.4,16.5,61.8,10.0,6.0,2.1,5.5,8.9,0,6,0,0,107.0,5.4,50.0,1.3,4.7,9.0,1,1
204,Coin,Andalucia,Spain,36.667,-4.75,2026-07-13 10:00,22.9,73.2,1,2.9,4.7,314,NW,1015.0,29.98,0.0,0.0,53,4,18.0,64.4,22.9,73.2,24.7,76.5,12.7,54.9,10.0,6.0,2.4,4.7,7.6,0,2,0,0,113.0,3.1,62.0,0.3,4.1,7.2,1,1
205,Ciudad Real,Castilla-La Mancha,Spain,38.983,-3.933,2026-07-13 10:00,22.3,72.1,1,5.4,8.6,245,WSW,1016.0,30.01,0.0,0.0,39,0,16.6,61.9,22.3,72.1,24.1,75.3,7.8,46.1,10.0,6.0,2.4,6.2,9.9,0,1,0,0,111.0,1.8,64.0,0.2,3.8,7.2,1,1
206,Cieza,Murcia,Spain,38.233,-1.417,2026-07-13 10:15,27.0,80.6,1,3.6,5.8,45,NE,1015.0,29.97,0.0,0.0,57,2,27.9,82.2,27.0,80.6,28.1,82.6,17.7,63.9,10.0,6.0,2.7,4.1,6.6,0,3,0,0,106.0,1.6,64.0,0.4,11.6,23.1,1,1
207,Mislata,Comunidad Valenciana,Spain,39.467,-0.417,2026-07-13 10:15,27.2,81.0,1,4.3,6.8,108,ESE,1013.0,29.91,0.0,0.0,74,75,29.7,85.4,26.7,80.1,28.9,84.0,21.1,70.0,10.0,6.0,2.7,5.3,8.5,0,6,0,0,146.0,17.7,77.0,2.8,12.0,30.1,1,2
208,Chipiona,Andalucia,Spain,36.733,-6.433,2026-07-13 10:15,22.1,71.8,1,4.9,7.9,331,NNW,1016.0,30.0,0.0,0.0,83,50,24.6,76.3,21.4,70.5,24.4,76.0,15.7,60.3,10.0,6.0,2.0,6.5,10.5,0,6,0,0,97.0,1.7,53.0,0.3,3.3,7.2,1,1
209,Chiclana,Andalucia,Spain,36.417,-6.133,2026-07-13 10:15,23.3,73.9,1,4.5,7.2,325,NW,1015.0,29.97,0.0,0.0,73,0,25.2,77.3,22.4,72.2,24.7,76.4,16.5,61.8,10.0,6.0,2.1,5.5,8.9,0,6,0,0,107.0,5.4,50.0,1.3,4.7,9.0,1,1
210,Cehegin,Murcia,Spain,38.1,-1.8,2026-07-13 10:15,27.0,80.6,1,3.6,5.8,45,NE,1015.0,29.97,0.0,0.0,57,2,27.9,82.2,27.0,80.6,28.1,82.6,17.7,63.9,10.0,6.0,2.7,4.1,6.6,0,3,0,0,106.0,1.6,64.0,0.4,11.6,23.1,1,1
211,Catarroja,Comunidad Valenciana,Spain,39.4,-0.4,2026-07-13 10:15,27.2,81.0,1,4.3,6.8,108,ESE,1013.0,29.91,0.0,0.0,74,75,29.7,85.4,26.7,80.1,28.9,84.0,21.1,70.0,10.0,6.0,2.7,5.3,8.5,0,6,0,0,146.0,17.7,77.0,2.8,12.0,30.1,1,2
212,Castilleja De La Cuesta,Andalucia,Spain,37.383,-6.05,2026-07-13 10:00,23.4,74.1,1,4.3,6.8,93,E,1015.0,29.97,0.0,0.0,73,0,25.2,77.3,22.6,72.7,24.8,76.6,15.9,60.7,10.0,6.0,2.1,4.9,7.9,0,5,0,0,144.0,23.9,39.0,2.9,9.1,15.9,1,1
213,Castellon,Comunidad Valenciana,Spain,39.983,-0.033,2026-07-13 10:00,27.2,81.0,1,4.0,6.5,84,E,1014.0,29.95,0.0,0.0,71,41,29.4,84.9,27.2,81.0,29.7,85.4,21.5,70.7,10.0,6.0,2.7,4.6,7.5,0,9,0,0,117.0,12.2,72.0,4.8,11.0,26.9,1,1
214,Cartaya,Andalucia,Spain,37.283,-7.15,2026-07-13 10:00,21.9,71.4,1,4.3,6.8,351,N,1016.0,30.01,0.0,0.0,63,4,16.5,61.7,21.9,71.4,24.5,76.2,14.5,58.2,10.0,6.0,1.9,5.2,8.4,0,4,0,0,97.0,4.6,45.0,3.5,3.9,7.2,1,1
215,Cartama,Andalucia,Spain,36.717,-4.65,2026-07-13 10:00,22.9,73.2,1,2.9,4.7,314,NW,1015.0,29.98,0.0,0.0,53,4,18.0,64.4,22.9,73.2,24.7,76.5,12.7,54.9,10.0,6.0,2.4,4.7,7.6,0,2,0,0,113.0,3.1,62.0,0.3,4.1,7.2,1,1
216,Cartagena,Murcia,Spain,37.6,-0.983,2026-07-13 10:00,26.1,79.0,1,2.5,4.0,164,SSE,1014.0,29.95,0.0,0.0,71,0,24.8,76.6,26.1,79.0,28.0,82.4,20.5,68.8,10.0,6.0,2.6,3.1,5.0,0,6,0,0,114.0,12.2,62.0,9.5,12.7,27.8,1,2
217,Carrizal,Canarias,Spain,27.9,-15.417,2026-07-13 09:00,20.5,68.9,1,9.8,15.8,18,NNE,1018.0,30.06,0.0,0.0,72,0,13.4,56.1,20.5,68.9,20.5,68.9,15.3,59.6,10.0,6.0,1.1,11.6,18.7,0,6,0,0,97.0,1.3,79.0,0.9,11.2,18.6,1,1
218,Carmona,Andalucia,Spain,37.467,-5.633,2026-07-13 10:15,23.2,73.8,1,3.8,6.1,92,E,1015.0,29.97,0.0,0.0,73,0,25.1,77.1,22.6,72.7,24.8,76.6,15.9,60.6,10.0,6.0,2.1,4.4,7.1,0,5,0,0,122.0,9.4,41.0,2.0,5.8,13.4,1,1
219,Carlet,Comunidad Valenciana,Spain,39.233,-0.517,2026-07-13 10:15,27.2,81.0,1,2.5,4.0,95,E,1013.0,29.91,0.0,0.0,74,75,28.8,83.8,28.2,82.7,30.3,86.5,20.3,68.5,10.0,6.0,2.7,2.8,4.6,0,4,0,0,128.0,4.2,83.0,0.6,12.2,29.2,1,2
220,Carcagente,Comunidad Valenciana,Spain,39.133,-0.45,2026-07-13 10:15,27.2,81.0,1,2.5,4.0,95,E,1013.0,29.91,0.0,0.0,74,75,28.8,83.8,28.2,82.7,30.3,86.5,20.3,68.5,10.0,6.0,2.7,2.8,4.6,0,4,0,0,128.0,4.2,83.0,0.6,12.2,29.2,1,2
221,Caserio Mairena,Murcia,Spain,38.1,-1.867,2026-07-13 10:15,27.0,80.6,1,3.6,5.8,45,NE,1015.0,29.97,0.0,0.0,57,2,27.9,82.2,27.0,80.6,28.1,82.6,17.7,63.9,10.0,6.0,2.7,4.1,6.6,0,3,0,0,106.0,1.6,64.0,0.4,11.6,23.1,1,1
222,Candelaria,Canarias,Spain,28.35,-16.367,2026-07-13 09:15,17.4,63.2,1,2.2,3.6,48,NE,1019.0,30.09,0.0,0.0,69,0,12.7,54.9,17.4,63.2,17.4,63.2,11.6,53.0,10.0,6.0,1.1,2.9,4.6,0,6,0,0,99.0,1.6,69.0,1.0,9.3,15.2,1,1
223,Campo De Criptana,Castilla-La Mancha,Spain,39.4,-3.117,2026-07-13 10:15,24.0,75.1,1,5.8,9.4,215,SW,1016.0,29.99,0.0,0.0,33,3,18.2,64.8,24.0,75.1,24.4,75.9,6.9,44.3,10.0,6.0,2.6,6.7,10.8,0,1,0,0,119.0,8.7,53.0,0.3,4.7,8.4,1,1
224,Campina,Andalucia,Spain,38.217,-2.983,2026-07-13 10:00,21.9,71.4,1,4.0,6.5,240,WSW,1016.0,30.01,0.0,0.0,46,3,16.6,61.9,21.9,71.4,24.3,75.7,9.7,49.5,10.0,6.0,2.6,4.6,7.5,0,1,0,0,114.0,1.5,65.0,0.7,4.0,8.0,1,1
225,Campello,Comunidad Valenciana,Spain,38.433,-0.4,2026-07-13 10:15,29.4,84.9,1,4.7,7.6,188,S,1013.0,29.91,0.01,0.0,75,75,35.5,95.9,26.5,79.6,29.2,84.6,22.6,72.6,10.0,6.0,2.5,5.4,8.7,0,17,0,0,112.0,7.5,82.0,1.0,11.9,24.6,1,1
226,Castilleja De La Cuesta,Andalucia,Spain,37.383,-6.05,2026-07-13 10:00,23.4,74.1,1,4.3,6.8,93,E,1015.0,29.97,0.0,0.0,73,0,25.2,77.3,22.6,72.7,24.8,76.6,15.9,60.7,10.0,6.0,2.1,4.9,7.9,0,5,0,0,144.0,23.9,39.0,2.9,9.1,15.9,1,1
227,Calvia,Islas Baleares,Spain,39.567,2.517,2026-07-13 10:15,29.1,84.4,1,9.6,15.5,187,S,1012.0,29.88,0.0,0.0,75,25,32.0,89.7,28.3,82.9,30.6,87.0,20.8,69.4,10.0,6.0,2.9,11.1,17.8,0,4,0,0,113.0,6.5,76.0,0.7,9.1,22.1,1,1
228,Calpe,Comunidad Valenciana,Spain,38.65,0.05,2026-07-13 10:00,27.1,80.8,1,4.7,7.6,180,S,1014.0,29.95,0.0,0.0,74,18,29.4,84.9,27.1,80.7,29.8,85.6,22.1,71.8,10.0,6.0,2.7,5.4,8.7,0,8,0,0,116.0,2.6,86.0,0.5,12.8,27.2,1,2
229,Cox,Comunidad Valenciana,Spain,38.133,-0.883,2026-07-13 10:15,29.4,84.9,1,2.2,3.6,130,SE,1013.0,29.91,0.0,0.0,75,75,33.0,91.4,28.1,82.5,30.5,87.0,21.2,70.1,10.0,6.0,2.6,2.6,4.1,0,6,0,0,118.0,4.7,71.0,1.1,15.9,36.4,2,2
230,Cadiz,Andalucia,Spain,36.534,-6.299,2026-07-13 10:00,22.2,72.0,1,3.8,6.1,330,NNW,1016.0,30.0,0.0,0.0,83,50,24.6,76.3,22.1,71.8,24.6,76.3,16.3,61.4,10.0,6.0,2.0,4.9,7.8,0,6,0,0,103.0,4.1,51.0,0.9,4.6,7.8,1,1
231,Caceres,Extremadura,Spain,39.483,-6.367,2026-07-13 10:15,21.1,69.9,1,3.4,5.4,229,SW,1016.0,30.01,0.0,0.0,54,4,16.0,60.8,21.1,69.9,24.4,75.9,11.4,52.5,10.0,6.0,2.0,3.9,6.2,0,3,0,0,90.0,3.3,47.0,0.4,3.9,7.5,1,1
232,Cabra,Andalucia,Spain,37.467,-4.45,2026-07-13 10:15,22.3,72.1,1,2.2,3.6,324,NW,1016.0,30.0,0.0,0.0,73,25,24.7,76.4,22.2,72.0,24.6,76.4,15.2,59.4,10.0,6.0,2.3,6.7,10.8,0,4,0,0,104.0,2.0,53.0,0.4,4.7,9.4,1,1
233,Caserio Nino Perdido,Comunidad Valenciana,Spain,39.883,-0.1,2026-07-13 10:00,27.2,81.0,1,4.0,6.5,84,E,1014.0,29.95,0.0,0.0,71,41,29.4,84.9,27.2,81.0,29.7,85.4,21.5,70.7,10.0,6.0,2.7,4.6,7.5,0,9,0,0,117.0,12.2,72.0,4.8,11.0,26.9,1,1
234,Mislata,Comunidad Valenciana,Spain,39.467,-0.417,2026-07-13 10:15,27.2,81.0,1,4.3,6.8,108,ESE,1013.0,29.91,0.0,0.0,74,75,29.7,85.4,26.7,80.1,28.9,84.0,21.1,70.0,10.0,6.0,2.7,5.3,8.5,0,6,0,0,146.0,17.7,77.0,2.8,12.0,30.1,1,2
235,San Juan De Aznalfarache,Andalucia,Spain,37.367,-6.033,2026-07-13 10:15,23.2,73.8,1,4.3,6.8,93,E,1015.0,29.97,0.0,0.0,73,0,25.1,77.1,22.6,72.7,24.8,76.6,15.9,60.7,10.0,6.0,2.1,4.9,7.9,0,5,0,0,144.0,23.9,39.0,2.9,9.1,15.9,1,1
236,Betera,Comunidad Valenciana,Spain,39.583,-0.45,2026-07-13 10:15,27.2,81.0,1,5.1,8.3,112,ESE,1013.0,29.91,0.0,0.0,74,75,29.0,84.2,27.7,81.8,29.7,85.4,20.3,68.6,10.0,6.0,2.7,5.9,9.5,0,4,0,0,133.0,12.7,73.0,2.7,11.5,30.4,1,1
237,Berja,Andalucia,Spain,36.85,-2.95,2026-07-13 10:15,26.3,79.3,1,4.7,7.6,193,SSW,1014.0,29.94,0.0,0.0,74,0,27.8,82.1,25.5,78.0,26.9,80.5,18.5,65.3,10.0,6.0,2.6,5.4,8.7,0,4,0,0,105.0,4.8,56.0,0.5,6.0,13.0,1,1
238,Benidorm,Comunidad Valenciana,Spain,38.533,-0.133,2026-07-13 10:15,29.4,84.9,1,4.7,7.6,183,S,1013.0,29.91,0.01,0.0,75,75,35.3,95.5,26.5,79.7,29.2,84.6,22.4,72.3,10.0,6.0,2.6,5.4,8.7,0,18,0,0,115.0,3.3,87.0,0.5,10.7,23.4,1,1
239,Benetuser,Comunidad Valenciana,Spain,39.417,-0.4,2026-07-13 10:15,27.2,81.0,1,4.3,6.8,108,ESE,1013.0,29.91,0.0,0.0,74,75,29.7,85.4,26.7,80.1,28.9,84.0,21.1,70.0,10.0,6.0,2.7,5.3,8.5,0,6,0,0,146.0,17.7,77.0,2.8,12.0,30.1,1,2
240,Benalmadena,Andalucia,Spain,36.6,-4.567,2026-07-13 10:00,23.2,73.8,1,3.4,5.4,304,NW,1015.0,29.97,0.0,0.0,53,4,18.2,64.8,23.2,73.8,24.9,76.8,13.2,55.7,10.0,6.0,2.4,5.2,8.4,0,2,0,0,112.0,3.8,66.0,0.2,4.0,7.9,1,1
241,Baza,Andalucia,Spain,37.483,-2.767,2026-07-13 10:15,22.9,73.2,1,2.9,4.7,10,N,1016.0,30.01,0.0,0.0,46,0,18.0,64.4,22.9,73.2,24.5,76.2,10.6,51.0,10.0,6.0,2.8,3.4,5.4,0,1,0,0,97.0,1.7,60.0,0.2,4.9,8.4,1,1
242,Los Molinos,Murcia,Spain,37.633,-0.983,2026-07-13 10:15,28.3,82.9,1,2.7,4.3,165,SSE,1014.0,29.94,0.0,0.0,74,50,31.6,88.9,26.4,79.4,28.3,83.0,20.7,69.2,10.0,6.0,2.6,3.2,5.2,0,6,0,0,114.0,12.2,62.0,9.5,12.7,27.8,1,2
243,Barbate,Andalucia,Spain,36.19,-5.922,2026-07-13 10:15,23.3,73.9,1,4.5,7.2,325,NW,1015.0,29.97,0.0,0.0,73,0,25.2,77.3,22.4,72.2,24.7,76.4,16.5,61.8,10.0,6.0,2.1,5.5,8.9,0,6,0,0,107.0,5.4,50.0,1.3,4.7,9.0,1,1
244,Bailen,Andalucia,Spain,38.1,-3.767,2026-07-13 10:00,22.0,71.6,1,2.2,3.6,261,W,1016.0,30.02,0.0,0.0,53,3,17.3,63.1,22.0,71.6,24.5,76.1,12.0,53.5,10.0,6.0,2.5,2.6,4.1,0,2,0,0,119.0,3.2,58.0,1.7,5.3,10.5,1,1
245,Baeza,Andalucia,Spain,37.983,-3.467,2026-07-13 10:00,22.0,71.6,1,2.2,3.6,261,W,1016.0,30.02,0.0,0.0,53,3,17.3,63.1,22.0,71.6,24.5,76.1,12.0,53.5,10.0,6.0,2.5,2.6,4.1,0,2,0,0,119.0,3.2,58.0,1.7,5.3,10.5,1,1
246,Baena,Andalucia,Spain,37.617,-4.317,2026-07-13 10:15,22.3,72.1,1,2.2,3.6,324,NW,1016.0,30.0,0.0,0.0,73,25,24.7,76.4,22.2,72.0,24.6,76.4,15.2,59.4,10.0,6.0,2.3,6.7,10.8,0,4,0,0,104.0,2.0,53.0,0.4,4.7,9.4,1,1
247,Badajoz,Extremadura,Spain,38.883,-6.967,2026-07-13 10:00,22.4,72.3,1,2.5,4.0,237,WSW,1016.0,30.0,0.0,0.0,65,0,24.7,76.4,20.9,69.7,20.9,69.7,12.8,55.1,10.0,6.0,1.9,2.8,4.6,0,4,0,0,90.0,2.8,43.0,0.7,4.6,8.4,1,1
248,Ayamonte,Andalucia,Spain,37.217,-7.4,2026-07-13 10:00,23.4,74.1,1,2.2,3.6,344,NNW,1017.0,30.02,0.0,0.0,57,2,18.8,65.8,23.4,74.1,25.1,77.1,14.5,58.2,10.0,6.0,3.8,6.7,10.8,0,3,0,0,92.0,1.6,55.0,0.2,3.3,7.3,1,1
249,Atarfe,Andalucia,Spain,37.217,-3.683,2026-07-13 10:15,21.2,70.2,1,2.2,3.6,240,WSW,1018.0,30.06,0.0,0.0,60,0,21.2,70.2,24.0,75.1,24.7,76.4,8.9,47.9,10.0,6.0,2.6,2.6,4.1,0,1,0,0,98.0,7.3,56.0,0.8,5.4,11.8,1,1
250,Atamaria,Murcia,Spain,37.6,-0.8,2026-07-13 10:15,28.3,82.9,1,5.6,9.0,189,S,1014.0,29.94,0.0,0.0,74,50,32.2,90.0,25.3,77.5,27.2,81.0,20.6,69.2,10.0,6.0,2.7,7.8,12.5,0,7,0,0,94.0,5.2,71.0,1.2,6.7,19.7,1,1
251,Aspe,Comunidad Valenciana,Spain,38.35,-0.767,2026-07-13 10:15,29.4,84.9,1,3.1,5.0,149,SSE,1013.0,29.91,0.0,0.0,75,75,33.5,92.4,27.5,81.4,29.9,85.8,21.4,70.4,10.0,6.0,2.6,3.6,5.8,0,9,0,0,125.0,10.5,67.0,1.0,15.3,32.4,1,2
252,Arucas,Canarias,Spain,28.117,-15.517,2026-07-13 09:15,22.1,71.8,1,7.8,12.6,21,NNE,1016.0,30.0,0.0,0.0,69,25,24.6,76.3,20.4,68.8,20.4,68.8,15.3,59.6,10.0,6.0,1.1,9.3,14.9,0,7,0,0,100.0,1.6,73.0,0.9,10.5,17.1,1,1
253,Arroyo De La Miel,Andalucia,Spain,36.6,-4.533,2026-07-13 10:15,23.2,73.8,1,3.4,5.4,304,NW,1015.0,29.97,0.0,0.0,53,4,18.2,64.8,23.2,73.8,24.9,76.8,13.2,55.7,10.0,6.0,2.4,5.2,8.4,0,2,0,0,112.0,3.8,66.0,0.2,4.0,7.9,1,1
254,Argana,Canarias,Spain,28.967,-13.567,2026-07-13 09:15,23.3,73.9,1,10.5,16.9,20,NNE,1016.0,30.0,0.01,0.0,69,25,25.2,77.4,21.3,70.4,24.4,75.8,17.0,62.6,10.0,6.0,1.1,14.0,22.5,0,17,0,0,89.0,0.7,79.0,0.6,9.7,16.2,1,1
255,Arona,Canarias,Spain,28.083,-16.667,2026-07-13 09:00,22.3,72.1,1,2.2,3.6,77,ENE,1017.0,30.03,0.0,0.0,57,25,24.7,76.4,21.1,70.1,24.4,75.9,15.7,60.3,10.0,6.0,1.0,6.7,10.8,0,6,0,0,119.0,1.9,69.0,1.3,9.8,15.9,1,1
256,Armilla,Andalucia,Spain,37.15,-3.617,2026-07-13 10:15,21.2,70.2,1,2.2,3.6,221,SW,1018.0,30.06,0.0,0.0,60,0,21.2,70.2,24.5,76.1,24.9,76.8,8.9,48.0,10.0,6.0,2.6,2.6,4.1,0,1,0,0,117.0,14.3,48.0,1.2,6.2,13.7,1,1
257,Arcos De La Frontera,Andalucia,Spain,36.75,-5.8,2026-07-13 10:15,23.3,73.9,1,2.9,4.7,301,WNW,1015.0,29.97,0.0,0.0,73,0,25.1,77.1,22.8,73.0,24.8,76.7,15.0,59.0,10.0,6.0,2.1,3.4,5.4,0,4,0,0,107.0,4.0,51.0,0.8,4.9,10.7,1,1
258,Archena,Murcia,Spain,38.117,-1.3,2026-07-13 10:15,28.3,82.9,1,2.2,3.6,61,ENE,1014.0,29.94,0.0,0.0,74,50,30.6,87.1,28.3,83.0,30.6,87.2,20.7,69.3,10.0,6.0,2.6,6.7,10.8,0,5,0,0,121.0,6.4,69.0,3.3,12.6,35.0,1,2
259,Antequera,Andalucia,Spain,37.017,-4.55,2026-07-13 10:00,21.7,71.1,1,4.9,7.9,354,N,1016.0,30.01,0.0,0.0,52,4,16.2,61.2,21.7,71.1,24.4,75.9,11.3,52.4,10.0,6.0,2.4,5.7,9.1,0,2,0,0,112.0,4.7,60.0,0.4,5.0,9.9,1,1
260,Andujar,Andalucia,Spain,38.05,-4.067,2026-07-13 10:15,22.4,72.4,1,2.5,4.0,252,WSW,1016.0,30.01,0.0,0.0,57,4,17.6,63.7,22.4,72.4,24.6,76.4,13.4,56.1,10.0,6.0,2.4,2.8,4.6,0,3,0,0,115.0,2.3,58.0,0.6,5.1,9.7,1,1
261,Altea,Comunidad Valenciana,Spain,38.6,-0.05,2026-07-13 10:15,29.4,84.9,1,4.7,7.6,179,S,1013.0,29.91,0.01,0.0,75,75,34.5,94.0,27.1,80.8,29.8,85.6,22.1,71.8,10.0,6.0,2.6,5.4,8.7,0,16,0,0,116.0,2.4,88.0,0.5,12.0,24.9,1,2
262,Almunecar,Andalucia,Spain,36.717,-3.683,2026-07-13 10:15,26.6,79.9,1,4.7,7.6,227,SW,1015.0,29.96,0.0,0.0,49,0,26.0,78.8,26.6,79.9,27.2,80.9,15.2,59.4,10.0,6.0,2.5,5.6,9.0,0,2,0,0,101.0,3.3,57.0,0.4,4.3,7.8,1,1
263,Barrio Del Camino De Catral,Comunidad Valenciana,Spain,38.117,-0.8,2026-07-13 10:15,29.4,84.9,1,4.9,7.9,173,S,1013.0,29.91,0.0,0.0,75,75,34.2,93.6,27.0,80.6,29.5,85.1,21.7,71.1,10.0,6.0,2.6,6.0,9.6,0,7,0,0,107.0,5.6,79.0,1.8,14.4,33.7,1,2
264,Almonte,Andalucia,Spain,37.265,-6.516,2026-07-13 10:00,21.9,71.5,1,3.8,6.1,354,N,1016.0,30.01,0.0,0.0,62,4,16.7,62.1,21.9,71.5,24.6,76.2,14.3,57.7,10.0,6.0,1.9,4.7,7.5,0,4,0,0,97.0,4.6,45.0,3.5,3.9,7.2,1,1
265,Almeria,Andalucia,Spain,36.833,-2.45,2026-07-13 10:00,24.7,76.5,1,3.6,5.8,163,SSE,1015.0,29.96,0.0,0.0,70,3,19.6,67.3,24.7,76.5,26.3,79.4,18.9,66.1,10.0,6.0,2.6,4.8,7.7,0,6,0,0,132.0,7.6,63.0,1.3,11.2,24.7,1,1
266,Almendralejo,Extremadura,Spain,38.683,-6.4,2026-07-13 10:15,22.1,71.8,1,3.4,5.4,250,WSW,1016.0,30.0,0.0,0.0,65,0,24.6,76.3,21.0,69.9,24.4,76.0,12.8,55.0,10.0,6.0,2.0,3.9,6.2,0,4,0,0,90.0,2.5,43.0,0.6,4.7,8.6,1,1
267,Almazora,Comunidad Valenciana,Spain,39.95,-0.05,2026-07-13 10:00,27.2,81.0,1,4.0,6.5,84,E,1014.0,29.95,0.0,0.0,71,41,29.4,84.9,27.2,81.0,29.7,85.4,21.5,70.7,10.0,6.0,2.7,4.6,7.5,0,9,0,0,117.0,12.2,72.0,4.8,11.0,26.9,1,1
268,Caserio Las Fuentecitas,Castilla-La Mancha,Spain,38.867,-1.1,2026-07-13 10:15,25.4,77.7,1,2.7,4.3,315,NW,1015.0,29.98,0.0,0.0,41,3,21.6,70.9,25.4,77.7,25.7,78.3,11.4,52.5,10.0,6.0,2.9,3.1,5.0,0,1,0,0,111.0,1.7,67.0,0.3,10.6,25.9,1,1
269,Aljaraque,Andalucia,Spain,37.267,-7.017,2026-07-13 10:00,21.9,71.4,1,4.3,6.8,351,N,1016.0,30.01,0.0,0.0,63,4,16.5,61.7,21.9,71.4,24.5,76.2,14.5,58.2,10.0,6.0,1.9,5.2,8.4,0,4,0,0,97.0,4.6,45.0,3.5,3.9,7.2,1,1
270,Barrio Benalua,Comunidad Valenciana,Spain,38.333,-0.5,2026-07-13 10:15,29.4,84.9,1,4.5,7.2,178,S,1013.0,29.91,0.0,0.0,75,75,35.0,95.0,26.4,79.6,28.9,84.1,22.0,71.7,10.0,6.0,2.6,5.1,8.3,0,11,0,0,112.0,7.5,82.0,1.0,11.9,24.6,1,1
271,Alhaurin El Grande,Andalucia,Spain,36.633,-4.683,2026-07-13 10:00,22.9,73.2,1,2.9,4.7,314,NW,1015.0,29.98,0.0,0.0,53,4,18.0,64.4,22.9,73.2,24.7,76.5,12.7,54.9,10.0,6.0,2.4,4.7,7.6,0,2,0,0,113.0,3.1,62.0,0.3,4.1,7.2,1,1
272,Alhaurin De La Torre,Andalucia,Spain,36.667,-4.55,2026-07-13 10:15,25.4,77.7,1,4.5,7.2,302,WNW,1014.0,29.94,0.0,0.0,51,0,26.1,79.1,24.6,76.4,25.6,78.1,13.7,56.6,10.0,6.0,2.4,5.3,8.6,0,2,0,0,112.0,3.6,59.0,0.4,4.4,8.9,1,1
273,Alhama De Murcia,Murcia,Spain,37.85,-1.417,2026-07-13 10:15,28.3,82.9,1,2.2,3.6,61,ENE,1014.0,29.94,0.0,0.0,74,50,30.6,87.1,28.3,83.0,30.6,87.2,20.7,69.3,10.0,6.0,2.6,6.7,10.8,0,5,0,0,121.0,6.4,69.0,3.3,12.6,35.0,1,2
274,Algemesi,Comunidad Valenciana,Spain,39.183,-0.433,2026-07-13 10:15,27.2,81.0,1,2.5,4.0,95,E,1013.0,29.91,0.0,0.0,74,75,28.8,83.8,28.2,82.7,30.3,86.5,20.3,68.5,10.0,6.0,2.7,2.8,4.6,0,4,0,0,128.0,4.2,83.0,0.6,12.2,29.2,1,2
275,Algeciras,Andalucia,Spain,36.128,-5.454,2026-07-13 10:15,22.3,72.1,1,8.5,13.7,268,W,1015.0,29.97,0.0,0.0,78,25,24.7,76.4,23.0,73.5,25.0,77.0,16.5,61.8,10.0,6.0,2.2,9.8,15.7,0,5,0,0,114.0,6.2,58.0,1.2,4.4,8.1,1,1
276,Alfafar,Comunidad Valenciana,Spain,39.417,-0.383,2026-07-13 10:15,27.2,81.0,1,4.3,6.8,108,ESE,1013.0,29.91,0.0,0.0,74,75,29.7,85.4,26.7,80.1,28.9,84.0,21.1,70.0,10.0,6.0,2.7,5.3,8.5,0,6,0,0,146.0,17.7,77.0,2.8,12.0,30.1,1,2
277,Aldaya,Comunidad Valenciana,Spain,39.467,-0.45,2026-07-13 10:15,27.2,81.0,1,5.1,8.3,112,ESE,1013.0,29.91,0.0,0.0,74,75,29.0,84.2,27.7,81.8,29.7,85.4,20.3,68.6,10.0,6.0,2.7,5.9,9.5,0,4,0,0,133.0,12.7,73.0,2.7,11.5,30.4,1,1
278,Puerta Del Alcudia,Islas Baleares,Spain,39.85,3.117,2026-07-13 10:15,29.1,84.4,1,11.4,18.4,128,SE,1012.0,29.88,0.0,0.0,75,25,32.5,90.4,28.2,82.8,30.9,87.6,21.4,70.6,10.0,6.0,2.9,13.5,21.7,0,5,0,0,107.0,1.7,88.0,0.3,10.1,20.8,1,1
279,Alco,Comunidad Valenciana,Spain,38.7,-0.467,2026-07-13 10:15,26.3,79.4,1,2.5,4.0,202,SSW,1015.0,29.97,0.0,0.0,57,3,25.2,77.4,26.3,79.4,27.3,81.2,17.0,62.6,10.0,6.0,2.8,2.8,4.6,0,3,0,0,108.0,3.7,76.0,0.4,11.9,35.3,1,1
280,Alcira,Comunidad Valenciana,Spain,39.15,-0.433,2026-07-13 10:15,27.2,81.0,1,2.5,4.0,95,E,1013.0,29.91,0.0,0.0,74,75,28.8,83.8,28.2,82.7,30.3,86.5,20.3,68.5,10.0,6.0,2.7,2.8,4.6,0,4,0,0,128.0,4.2,83.0,0.6,12.2,29.2,1,2
281,Alcazar De San Juan,Castilla-La Mancha,Spain,39.4,-3.2,2026-07-13 10:00,24.1,75.5,1,4.5,7.2,217,SW,1016.0,29.99,0.0,0.0,33,5,18.7,65.7,24.1,75.5,24.4,76.0,6.8,44.2,10.0,6.0,2.5,5.1,8.3,0,1,0,0,113.0,3.3,58.0,0.2,5.5,9.0,1,1
282,Alcantarilla,Murcia,Spain,37.967,-1.217,2026-07-13 10:15,28.3,82.9,1,2.2,3.6,61,ENE,1014.0,29.94,0.0,0.0,74,50,30.6,87.1,28.3,83.0,30.6,87.2,20.7,69.3,10.0,6.0,2.6,6.7,10.8,0,5,0,0,121.0,6.4,69.0,3.3,12.6,35.0,1,2
283,Alcala La Real,Andalucia,Spain,37.467,-3.933,2026-07-13 10:15,21.1,70.0,1,2.2,3.6,214,SW,1017.0,30.03,0.0,0.0,64,0,21.1,70.0,23.5,74.3,24.8,76.6,11.0,51.8,10.0,6.0,2.6,6.7,10.8,0,1,0,0,107.0,5.7,48.0,0.7,4.4,8.2,1,1
284,Alcala De Guadaira,Andalucia,Spain,37.333,-5.833,2026-07-13 10:15,23.2,73.8,1,3.4,5.4,99,E,1015.0,29.97,0.0,0.0,73,0,25.1,77.1,22.4,72.2,24.7,76.4,15.7,60.3,10.0,6.0,2.1,3.9,6.3,0,5,0,0,122.0,11.6,42.0,1.6,7.2,14.2,1,1
285,Alboraya,Comunidad Valenciana,Spain,39.5,-0.35,2026-07-13 10:15,27.2,81.0,1,4.3,6.8,108,ESE,1013.0,29.91,0.0,0.0,74,75,29.7,85.4,26.7,80.1,28.9,84.0,21.1,70.0,10.0,6.0,2.7,5.3,8.5,0,6,0,0,146.0,17.7,77.0,2.8,12.0,30.1,1,2
286,Peligros,Andalucia,Spain,37.233,-3.633,2026-07-13 10:15,21.2,70.2,1,2.2,3.6,240,WSW,1018.0,30.06,0.0,0.0,60,0,21.2,70.2,24.0,75.1,24.7,76.4,8.9,47.9,10.0,6.0,2.6,2.6,4.1,0,1,0,0,98.0,7.3,56.0,0.8,5.4,11.8,1,1
287,Albal,Comunidad Valenciana,Spain,39.4,-0.417,2026-07-13 10:15,27.2,81.0,1,4.3,6.8,108,ESE,1013.0,29.91,0.0,0.0,74,75,29.7,85.4,26.7,80.1,28.9,84.0,21.1,70.0,10.0,6.0,2.7,5.3,8.5,0,6,0,0,146.0,17.7,77.0,2.8,12.0,30.1,1,2
288,Albacete,Castilla-La Mancha,Spain,38.983,-1.85,2026-07-13 10:15,23.2,73.8,1,6.3,10.1,311,NW,1017.0,30.03,0.0,0.0,50,0,24.2,75.5,24.8,76.6,24.9,76.9,8.5,47.3,10.0,6.0,2.8,7.2,11.6,0,1,0,0,107.0,2.8,67.0,0.5,4.8,8.5,1,1
289,Alacuas,Comunidad Valenciana,Spain,39.45,-0.45,2026-07-13 10:15,27.2,81.0,1,5.1,8.3,112,ESE,1013.0,29.91,0.0,0.0,74,75,29.0,84.2,27.7,81.8,29.7,85.4,20.3,68.6,10.0,6.0,2.7,5.9,9.5,0,4,0,0,133.0,12.7,73.0,2.7,11.5,30.4,1,1
290,Aguimes,Canarias,Spain,27.9,-15.45,2026-07-13 09:15,20.5,68.9,1,9.8,15.8,18,NNE,1018.0,30.06,0.0,0.0,72,0,13.4,56.1,20.5,68.9,20.5,68.9,15.3,59.6,10.0,6.0,1.1,11.6,18.7,0,6,0,0,97.0,1.3,79.0,0.9,11.2,18.6,1,1
291,Aguilas,Murcia,Spain,37.4,-1.583,2026-07-13 10:00,26.4,79.5,1,2.7,4.3,100,E,1014.0,29.95,0.0,0.0,70,0,25.8,78.4,26.4,79.5,28.3,82.9,20.4,68.8,10.0,6.0,2.6,3.2,5.1,0,5,0,0,103.0,3.7,71.0,0.5,11.4,32.2,1,1
292,Adra,Andalucia,Spain,36.733,-3.017,2026-07-13 10:15,26.3,79.3,1,4.7,7.6,193,SSW,1014.0,29.94,0.0,0.0,74,0,27.8,82.1,25.5,78.0,26.9,80.5,18.5,65.3,10.0,6.0,2.6,5.4,8.7,0,4,0,0,105.0,4.8,56.0,0.5,6.0,13.0,1,1
293,Costa Adeje,Canarias,Spain,28.117,-16.717,2026-07-13 09:00,20.2,68.3,1,2.2,3.6,67,ENE,1018.0,30.08,0.0,0.0,70,0,15.8,60.4,20.2,68.3,20.2,68.3,14.6,58.2,10.0,6.0,1.0,6.7,10.8,0,6,0,0,119.0,1.9,69.0,1.3,9.8,15.9,1,1
294,Groa De Murviedro,Comunidad Valenciana,Spain,39.642,-0.239,2026-07-13 10:15,27.2,81.0,1,4.9,7.9,107,ESE,1013.0,29.91,0.0,0.0,74,75,29.5,85.0,27.0,80.5,29.1,84.4,20.8,69.5,10.0,6.0,2.7,5.7,9.1,0,6,0,0,128.0,10.5,75.0,4.9,10.6,29.3,1,1
295,Zarautz,Pais Vasco,Spain,43.283,-2.167,2026-07-13 10:15,24.0,75.2,1,2.5,4.0,59,ENE,1015.0,29.97,0.0,0.0,74,100,26.0,78.8,21.6,70.9,24.4,75.9,18.4,65.1,10.0,6.0,2.2,2.8,4.6,0,15,0,0,115.0,2.6,84.0,1.1,8.2,14.8,1,1
296,Arrabal,Aragon,Spain,41.667,-0.867,2026-07-13 10:15,27.0,80.6,1,3.1,5.0,121,ESE,1014.0,29.94,0.0,0.0,62,25,28.1,82.6,27.2,81.0,28.4,83.2,18.0,64.5,10.0,6.0,2.6,3.6,5.8,0,3,0,0,125.0,5.2,75.0,1.3,9.5,24.3,1,1
297,Zamora,Castilla y Leon,Spain,41.5,-5.75,2026-07-13 10:00,20.6,69.1,1,5.4,8.6,213,SW,1016.0,29.99,0.0,0.0,50,3,14.9,58.8,20.6,69.1,20.6,69.1,9.8,49.5,10.0,6.0,2.0,6.2,9.9,0,2,0,0,101.0,2.1,58.0,0.3,3.8,7.3,1,1
298,Magazos,Galicia,Spain,43.65,-7.6,2026-07-13 10:00,19.7,67.5,1,2.2,3.6,155,SSE,1015.0,29.96,0.0,0.0,63,40,15.3,59.5,19.7,67.5,19.7,67.5,12.4,54.4,10.0,6.0,1.7,6.7,10.8,0,7,0,0,94.0,1.5,53.0,0.1,3.6,6.6,1,1
299,Vitoria,Pais Vasco,Spain,42.85,-2.667,2026-07-13 10:15,20.1,68.2,1,2.2,3.6,232,SW,1017.0,30.03,0.0,0.0,88,75,20.1,68.2,22.0,71.5,24.6,76.2,14.6,58.4,6.0,3.0,2.1,6.7,10.8,0,4,0,0,137.0,9.5,67.0,0.7,11.3,18.2,1,1
300,Vinaroz,Comunidad Valenciana,Spain,40.467,0.483,2026-07-13 10:15,26.0,78.7,1,5.4,8.6,76,ENE,1014.0,29.96,0.02,0.0,79,71,23.8,74.8,26.0,78.7,28.4,83.0,22.0,71.5,10.0,6.0,2.3,6.2,9.9,0,18,0,0,109.0,2.9,83.0,0.1,8.5,17.7,1,1
301,Villaviciosa De Odon,Madrid,Spain,40.367,-3.9,2026-07-13 10:15,23.4,74.1,1,7.4,11.9,223,SW,1017.0,30.03,0.0,0.0,38,0,24.2,75.5,23.3,73.9,24.1,75.5,6.9,44.4,10.0,6.0,2.4,8.5,13.7,0,1,0,0,125.0,11.1,57.0,0.6,5.6,9.3,1,1
302,Villaverde,Madrid,Spain,40.35,-3.7,2026-07-13 10:15,25.2,77.4,1,7.6,12.2,224,SW,1017.0,30.03,0.0,0.0,36,0,25.1,77.2,24.1,75.4,24.5,76.1,7.3,45.2,10.0,6.0,2.4,8.7,14.1,0,1,0,0,138.0,24.8,47.0,1.9,6.6,10.9,1,1
303,Villaquilambre,Castilla y Leon,Spain,42.65,-5.55,2026-07-13 10:00,19.9,67.8,1,5.8,9.4,168,SSE,1015.0,29.99,0.0,0.0,45,7,14.1,57.4,19.9,67.8,19.9,67.8,7.8,46.0,10.0,6.0,2.1,6.7,10.8,0,2,0,0,107.0,2.8,56.0,0.9,4.0,7.6,1,1
304,Vilanova I La Geltru,Catalonia,Spain,41.233,1.733,2026-07-13 10:00,27.2,81.0,1,9.4,15.1,83,E,1013.0,29.91,0.0,0.0,84,50,28.0,82.4,28.6,83.4,29.8,85.6,18.0,64.4,10.0,6.0,2.9,10.8,17.4,0,3,0,0,134.0,10.8,80.0,1.2,11.6,17.1,1,1
305,Villanueva Del Pardillo,Madrid,Spain,40.483,-3.967,2026-07-13 10:15,23.4,74.1,1,6.5,10.4,212,SSW,1017.0,30.03,0.0,0.0,38,0,24.0,75.2,23.8,74.8,24.2,75.5,6.1,43.1,10.0,6.0,2.3,7.5,12.0,0,1,0,0,114.0,7.7,61.0,0.5,5.0,8.0,1,1
306,Villanueva De La Canada,Madrid,Spain,40.45,-4.0,2026-07-13 10:15,23.4,74.1,1,6.5,10.4,212,SSW,1017.0,30.03,0.0,0.0,38,0,24.0,75.2,23.8,74.8,24.2,75.5,6.1,43.1,10.0,6.0,2.3,7.5,12.0,0,1,0,0,114.0,7.7,61.0,0.5,5.0,8.0,1,1
307,Villagarcia De Arosa,Galicia,Spain,42.6,-8.75,2026-07-13 10:15,19.9,67.9,1,3.6,5.8,166,SSE,1015.0,29.98,0.0,0.0,67,18,14.8,58.6,19.9,67.9,19.9,67.9,13.6,56.4,10.0,6.0,1.6,4.1,6.6,0,6,0,0,99.0,4.3,56.0,0.5,5.2,9.6,1,1
308,Vilafranca De Panades,Catalonia,Spain,41.35,1.7,2026-07-13 10:00,27.2,81.0,1,9.4,15.1,83,E,1013.0,29.91,0.0,0.0,84,50,28.0,82.4,28.6,83.4,29.8,85.6,18.0,64.4,10.0,6.0,2.9,10.8,17.4,0,3,0,0,134.0,10.8,80.0,1.2,11.6,17.1,1,1
309,Vilaseca,Catalonia,Spain,41.117,1.15,2026-07-13 10:15,28.1,82.6,1,5.4,8.6,129,SE,1013.0,29.91,0.0,0.0,45,0,30.9,87.5,26.7,80.1,28.7,83.6,20.4,68.7,10.0,6.0,2.8,6.2,9.9,0,6,0,0,126.0,7.8,84.0,1.9,10.5,19.4,1,1
310,Borgonua,Catalonia,Spain,42.067,2.25,2026-07-13 10:00,29.1,84.3,1,4.7,7.6,90,E,1015.0,29.97,0.0,0.0,32,5,23.6,74.5,29.1,84.3,28.2,82.7,10.7,51.2,10.0,6.0,3.0,5.4,8.7,0,1,0,0,109.0,1.6,85.0,0.3,8.3,19.6,1,1
311,Viladecans,Catalonia,Spain,41.317,2.0,2026-07-13 10:15,27.4,81.3,1,13.2,21.2,66,ENE,1013.0,29.91,0.0,0.0,84,50,29.9,85.8,26.8,80.3,29.0,84.1,20.9,69.7,10.0,6.0,2.8,15.8,25.4,0,6,0,0,119.0,10.8,90.0,1.1,10.4,17.9,1,1
312,Vigo,Galicia,Spain,42.233,-8.717,2026-07-13 10:00,18.8,65.8,1,4.9,7.9,141,SE,1015.0,29.98,0.0,0.0,72,15,13.2,55.8,18.8,65.8,18.8,65.8,13.7,56.6,10.0,6.0,1.6,6.3,10.2,0,7,0,0,101.0,6.2,52.0,0.8,6.5,10.6,1,1
313,Vic,Catalonia,Spain,41.933,2.25,2026-07-13 10:00,29.1,84.3,1,4.7,7.6,90,E,1015.0,29.97,0.0,0.0,32,5,23.6,74.5,29.1,84.3,28.2,82.7,10.7,51.2,10.0,6.0,3.0,5.4,8.7,0,1,0,0,109.0,1.6,85.0,0.3,8.3,19.6,1,1
314,Vicalvaro,Madrid,Spain,40.4,-3.6,2026-07-13 10:00,26.3,79.3,1,7.4,11.9,221,SW,1016.0,30.0,0.0,0.0,34,0,25.8,78.4,24.0,75.2,24.4,75.8,6.7,44.0,10.0,6.0,2.4,8.5,13.7,0,1,0,0,135.0,21.2,48.0,1.6,7.1,10.4,1,1
315,El Vendrell,Catalonia,Spain,41.217,1.533,2026-07-13 10:15,28.1,82.6,1,6.9,11.2,98,E,1013.0,29.91,0.0,0.0,45,0,28.8,83.8,29.1,84.5,30.1,86.2,17.3,63.2,10.0,6.0,2.9,8.0,12.9,0,3,0,0,136.0,9.0,77.0,1.3,10.2,18.7,1,1
316,Valls,Catalonia,Spain,41.283,1.25,2026-07-13 10:15,28.1,82.6,1,5.4,8.6,146,SSE,1013.0,29.91,0.0,0.0,45,0,29.6,85.3,27.6,81.6,28.9,84.0,18.5,65.2,10.0,6.0,2.8,6.2,9.9,0,4,0,0,127.0,9.8,76.0,4.4,10.7,20.3,1,1
317,Vallecas,Madrid,Spain,40.383,-3.617,2026-07-13 10:15,26.0,78.8,1,7.4,11.9,221,SW,1016.0,30.0,0.0,0.0,34,0,25.6,78.0,24.0,75.2,24.4,75.8,6.7,44.0,10.0,6.0,2.4,8.5,13.7,0,1,0,0,135.0,21.2,48.0,1.6,7.1,10.4,1,1
318,Valladolid,Castilla y Leon,Spain,41.65,-4.717,2026-07-13 10:15,22.2,72.0,1,4.9,7.9,177,S,1015.0,29.99,0.0,0.0,36,7,16.7,62.1,22.2,72.0,23.9,74.9,6.6,43.9,10.0,6.0,2.1,5.7,9.1,0,1,0,0,116.0,7.0,50.0,0.8,5.0,8.3,1,1
319,Valdemoro,Madrid,Spain,40.2,-3.667,2026-07-13 10:15,25.2,77.4,1,8.3,13.3,231,SW,1017.0,30.03,0.0,0.0,36,0,25.3,77.6,23.1,73.5,24.2,75.6,7.7,45.9,10.0,6.0,2.4,9.5,15.3,0,1,0,0,130.0,14.7,54.0,0.8,6.2,9.3,1,1
320,Vaciamadrid,Madrid,Spain,40.333,-3.517,2026-07-13 10:15,26.0,78.8,1,7.6,12.2,216,SW,1016.0,30.0,0.0,0.0,34,0,25.5,77.9,24.9,76.8,24.7,76.5,6.8,44.2,10.0,6.0,2.4,8.7,14.1,0,1,0,0,144.0,32.2,42.0,2.9,7.2,12.0,1,1
321,Utebo,Aragon,Spain,41.717,-1.0,2026-07-13 10:15,27.2,81.0,1,3.1,5.0,109,ESE,1014.0,29.94,0.0,0.0,62,25,28.3,83.0,27.2,80.9,28.3,82.9,17.8,64.0,10.0,6.0,2.5,3.6,5.8,0,3,0,0,124.0,4.5,72.0,1.5,9.6,25.1,1,1
322,Tuy,Galicia,Spain,42.05,-8.633,2026-07-13 10:15,18.8,65.8,1,4.9,7.9,141,SE,1015.0,29.98,0.0,0.0,72,15,13.2,55.8,18.8,65.8,18.8,65.8,13.7,56.6,10.0,6.0,1.6,6.3,10.2,0,7,0,0,101.0,6.2,52.0,0.8,6.5,10.6,1,1
323,Tudela,Navarra,Spain,42.083,-1.6,2026-07-13 10:00,26.4,79.6,1,2.2,3.6,334,NNW,1014.0,29.95,0.0,0.0,59,7,25.7,78.3,26.4,79.6,27.6,81.7,17.8,64.0,10.0,6.0,2.4,2.6,4.1,0,3,0,0,111.0,5.0,72.0,0.8,10.2,23.8,1,1
324,Tortosa,Catalonia,Spain,40.8,0.517,2026-07-13 10:15,26.2,79.1,1,6.7,10.8,88,E,1014.0,29.95,0.01,0.0,79,80,24.7,76.5,26.2,79.1,28.7,83.7,22.3,72.1,10.0,6.0,1.9,8.3,13.3,0,20,0,0,118.0,4.2,82.0,0.4,11.5,20.4,1,1
325,Torrelodones,Madrid,Spain,40.583,-3.933,2026-07-13 10:15,23.4,74.1,1,6.5,10.4,212,SSW,1017.0,30.03,0.0,0.0,38,0,24.0,75.2,23.8,74.8,24.2,75.5,6.1,43.1,10.0,6.0,2.3,7.5,12.0,0,1,0,0,114.0,7.7,61.0,0.5,5.0,8.0,1,1
326,Torrelavega,Cantabria,Spain,43.35,-4.05,2026-07-13 10:15,23.2,73.8,1,2.2,3.6,29,NNE,1015.0,29.97,0.0,0.0,78,0,25.1,77.2,22.2,72.0,24.6,76.4,16.1,60.9,10.0,6.0,2.2,6.7,10.8,0,5,0,0,162.0,6.8,68.0,2.7,9.0,12.3,1,1
327,Torrejon De Ardoz,Madrid,Spain,40.45,-3.483,2026-07-13 10:15,26.0,78.8,1,7.6,12.2,216,SW,1016.0,30.0,0.0,0.0,34,0,25.5,77.9,24.9,76.8,24.7,76.5,6.8,44.3,10.0,6.0,2.4,8.7,14.1,0,1,0,0,137.0,24.8,41.0,2.7,6.6,11.6,1,1
328,Torredembarra,Catalonia,Spain,41.15,1.4,2026-07-13 10:15,28.1,82.6,1,5.4,8.6,133,SE,1013.0,29.91,0.0,0.0,45,0,30.3,86.5,27.1,80.8,28.8,83.8,19.6,67.3,10.0,6.0,2.8,6.3,10.2,0,6,0,0,128.0,9.8,79.0,3.0,10.4,19.2,1,1
329,Tordera,Catalonia,Spain,41.7,2.717,2026-07-13 10:15,27.7,81.9,1,7.8,12.6,67,ENE,1014.0,29.95,0.0,0.0,63,6,29.4,84.9,27.7,81.9,29.7,85.4,20.1,68.2,10.0,6.0,2.9,9.0,14.5,0,4,0,0,117.0,3.3,87.0,0.3,9.8,16.6,1,1
330,San Esteban,Pais Vasco,Spain,43.133,-2.083,2026-07-13 10:15,24.0,75.2,1,2.5,4.0,59,ENE,1015.0,29.97,0.0,0.0,74,100,26.0,78.8,21.6,70.9,24.4,75.9,18.4,65.1,10.0,6.0,2.2,2.8,4.6,0,15,0,0,115.0,2.6,84.0,1.1,8.2,14.8,1,1
331,Barrio La Huerta Del Obispo,Madrid,Spain,40.467,-3.7,2026-07-13 10:15,23.0,73.4,1,7.4,11.9,218,SW,1017.0,30.03,0.0,0.0,38,0,23.8,74.8,24.3,75.7,24.4,75.9,6.3,43.4,10.0,6.0,2.4,8.5,13.7,0,1,0,0,135.0,21.2,48.0,1.6,7.1,10.4,1,1
332,Teruel,Aragon,Spain,40.35,-1.1,2026-07-13 10:00,24.8,76.6,1,2.2,3.6,189,S,1015.0,29.98,0.0,0.0,57,5,20.2,68.4,24.8,76.6,25.9,78.7,15.6,60.1,10.0,6.0,2.9,2.3,3.7,0,3,0,0,103.0,0.9,79.0,0.5,10.3,30.3,1,1
333,Raris,Galicia,Spain,42.783,-8.55,2026-07-13 10:15,18.3,64.9,1,3.6,5.8,204,SSW,1015.0,29.97,0.0,0.0,73,0,18.3,64.9,18.6,65.4,18.6,65.4,11.7,53.1,10.0,6.0,1.7,4.1,6.6,0,4,0,0,97.0,2.6,65.0,0.6,4.9,9.4,1,1
334,Tarrega,Catalonia,Spain,41.65,1.15,2026-07-13 10:15,29.7,85.5,1,8.3,13.3,96,E,1014.0,29.95,0.0,0.0,24,100,23.2,73.8,29.7,85.5,28.0,82.4,7.1,44.8,10.0,6.0,2.9,9.5,15.3,0,9,0,0,107.0,1.2,89.0,0.5,9.4,21.4,1,1
335,Terrassa,Catalonia,Spain,41.561,2.008,2026-07-13 10:15,28.2,82.8,1,4.7,7.6,104,ESE,1014.0,29.94,0.0,0.0,45,0,27.3,81.2,29.6,85.3,28.7,83.7,11.1,52.1,10.0,6.0,2.9,5.4,8.7,0,1,0,0,135.0,14.3,76.0,1.5,10.5,22.7,1,1
336,Tarragona,Catalonia,Spain,41.117,1.25,2026-07-13 10:15,28.1,82.6,1,5.4,8.6,132,SE,1013.0,29.91,0.0,0.0,45,0,30.3,86.6,27.0,80.7,28.7,83.7,19.7,67.4,10.0,6.0,2.8,6.4,10.2,0,6,0,0,128.0,9.8,79.0,3.0,10.4,19.2,1,1
337,Tarancon,Castilla-La Mancha,Spain,40.017,-3.0,2026-07-13 10:00,23.8,74.9,1,5.1,8.3,263,W,1016.0,29.99,0.0,0.0,34,6,18.2,64.8,23.8,74.9,24.3,75.8,7.0,44.6,10.0,6.0,2.6,5.9,9.5,0,1,0,0,111.0,2.2,60.0,0.3,4.1,7.2,1,1
338,Soria,Castilla y Leon,Spain,41.767,-2.467,2026-07-13 10:00,22.2,71.9,1,4.3,6.8,187,S,1016.0,29.99,0.0,0.0,37,8,16.8,62.2,22.2,71.9,23.9,74.9,6.7,44.1,10.0,6.0,2.6,4.9,7.9,0,1,0,0,103.0,1.0,61.0,0.2,5.0,9.6,1,1
339,Sitges,Catalonia,Spain,41.233,1.817,2026-07-13 10:15,27.4,81.3,1,9.4,15.1,83,E,1013.0,29.91,0.0,0.0,84,50,28.2,82.8,28.6,83.4,29.8,85.6,18.0,64.4,10.0,6.0,2.9,10.8,17.4,0,3,0,0,134.0,10.8,80.0,1.2,11.6,17.1,1,1
340,Portugalete,Pais Vasco,Spain,43.317,-3.017,2026-07-13 10:15,25.0,77.0,1,2.2,3.6,10,N,1015.0,29.97,0.0,0.0,65,25,26.6,79.8,22.9,73.3,25.0,76.9,16.9,62.5,10.0,6.0,2.2,6.7,10.8,0,5,0,0,160.0,26.6,55.0,12.8,11.3,16.4,1,1
341,Sesena Nuevo,Castilla-La Mancha,Spain,40.1,-3.65,2026-07-13 10:15,25.2,77.4,1,8.3,13.3,253,WSW,1017.0,30.03,0.0,0.0,36,0,25.5,78.0,23.2,73.8,24.5,76.0,9.2,48.5,10.0,6.0,2.4,9.5,15.3,0,1,0,0,116.0,3.1,61.0,0.6,5.1,8.5,1,1
342,Segovia,Castilla y Leon,Spain,40.95,-4.117,2026-07-13 10:00,21.7,71.1,1,2.2,3.6,215,SW,1016.0,29.99,0.0,0.0,34,4,17.2,63.0,21.7,71.1,23.5,74.4,5.2,41.4,10.0,6.0,2.4,6.7,10.8,0,1,0,0,109.0,2.2,62.0,0.3,4.0,7.1,1,1
343,Cerdanola,Catalonia,Spain,41.483,2.133,2026-07-13 10:15,28.2,82.8,1,5.4,8.6,100,E,1014.0,29.94,0.0,0.0,45,0,27.8,82.1,29.4,85.0,29.1,84.4,13.4,56.1,10.0,6.0,2.9,6.2,9.9,0,1,0,0,134.0,9.9,76.0,1.2,10.4,20.9,1,1
344,San Vicente De Horts,Catalonia,Spain,41.4,2.017,2026-07-13 10:00,27.2,81.0,1,10.3,16.6,72,ENE,1013.0,29.91,0.0,0.0,84,50,28.5,83.4,27.5,81.5,28.9,84.1,18.8,65.8,10.0,6.0,2.9,12.1,19.4,0,3,0,0,136.0,17.0,84.0,1.7,11.0,21.1,1,1
345,Galindo,Pais Vasco,Spain,43.3,-3.017,2026-07-13 10:15,25.0,77.0,1,2.2,3.6,10,N,1015.0,29.97,0.0,0.0,65,25,26.6,79.8,22.9,73.3,25.0,76.9,16.9,62.5,10.0,6.0,2.2,6.7,10.8,0,5,0,0,160.0,26.6,55.0,12.8,11.3,16.4,1,1
346,Santurce-Antiguo,Pais Vasco,Spain,43.333,-3.033,2026-07-13 10:15,25.0,77.0,1,2.2,3.6,10,N,1015.0,29.97,0.0,0.0,65,25,26.6,79.8,22.9,73.3,25.0,76.9,16.9,62.5,10.0,6.0,2.2,6.7,10.8,0,5,0,0,160.0,26.6,55.0,12.8,11.3,16.4,1,1
347,L'hospitalet De Llobregat,Catalonia,Spain,41.367,2.133,2026-07-13 10:15,27.4,81.3,1,10.7,17.3,71,ENE,1013.0,29.91,0.0,0.0,84,50,29.0,84.3,27.4,81.4,29.1,84.3,19.5,67.1,10.0,6.0,2.9,12.4,20.0,0,4,0,0,130.0,15.4,85.0,1.2,11.3,19.1,1,1
348,Sant Just Desvern,Catalonia,Spain,41.383,2.083,2026-07-13 10:00,27.2,81.0,1,10.3,16.6,72,ENE,1013.0,29.91,0.0,0.0,84,50,28.5,83.4,27.5,81.5,28.9,84.1,18.8,65.8,10.0,6.0,2.9,12.1,19.4,0,3,0,0,136.0,17.0,84.0,1.7,11.0,21.1,1,1
349,Santiago De Compostela,Galicia,Spain,42.883,-8.55,2026-07-13 10:15,18.3,64.9,1,3.6,5.8,204,SSW,1015.0,29.97,0.0,0.0,73,0,18.3,64.9,18.6,65.4,18.6,65.4,11.7,53.1,10.0,6.0,1.7,4.1,6.6,0,4,0,0,97.0,2.6,65.0,0.6,4.9,9.4,1,1
350,Santa Perpetua De Moguda,Catalonia,Spain,41.533,2.183,2026-07-13 10:15,28.2,82.8,1,5.4,8.6,100,E,1014.0,29.94,0.0,0.0,45,0,27.8,82.1,29.4,85.0,29.1,84.4,13.4,56.1,10.0,6.0,2.9,6.2,9.9,0,1,0,0,134.0,9.9,76.0,1.2,10.4,20.9,1,1
351,Santander,Cantabria,Spain,43.465,-3.804,2026-07-13 10:15,23.2,73.8,1,2.2,3.6,279,W,1015.0,29.97,0.0,0.0,78,0,25.2,77.3,21.2,70.2,24.4,75.8,16.8,62.2,10.0,6.0,2.2,6.7,10.8,0,8,0,0,144.0,8.0,69.0,1.9,9.0,12.8,1,1
352,Santa Maria De Barbara,Catalonia,Spain,41.517,2.133,2026-07-13 10:15,28.2,82.8,1,5.4,8.6,100,E,1014.0,29.94,0.0,0.0,45,0,27.8,82.1,29.4,85.0,29.1,84.4,13.4,56.1,10.0,6.0,2.9,6.2,9.9,0,1,0,0,134.0,9.9,76.0,1.2,10.4,20.9,1,1
353,Martin,Galicia,Spain,42.55,-8.983,2026-07-13 10:15,19.9,67.9,1,3.6,5.8,166,SSE,1015.0,29.98,0.0,0.0,67,18,14.8,58.6,19.9,67.9,19.9,67.9,13.6,56.4,10.0,6.0,1.6,4.1,6.6,0,6,0,0,99.0,4.3,56.0,0.5,5.2,9.6,1,1
354,Santa Coloma De Gramanet,Catalonia,Spain,41.45,2.217,2026-07-13 10:15,27.4,81.3,1,8.5,13.7,81,E,1013.0,29.91,0.0,0.0,84,50,28.6,83.4,28.0,82.3,29.3,84.8,18.5,65.3,10.0,6.0,2.9,9.8,15.7,0,3,0,0,119.0,5.5,82.0,0.5,10.4,18.2,1,1
355,San Sebastian De Los Reyes,Madrid,Spain,40.55,-3.633,2026-07-13 10:15,26.0,78.8,1,7.4,11.9,211,SSW,1016.0,30.0,0.0,0.0,34,0,25.4,77.7,24.8,76.7,24.6,76.3,6.2,43.2,10.0,6.0,2.4,8.5,13.7,0,1,0,0,118.0,9.7,57.0,1.2,5.4,8.6,1,1
356,Donostia-San Sebastian,Pais Vasco,Spain,43.317,-1.983,2026-07-13 10:15,24.0,75.2,1,2.5,4.0,56,ENE,1015.0,29.97,0.0,0.0,74,100,26.0,78.8,21.8,71.3,24.4,76.0,18.7,65.6,10.0,6.0,2.2,2.8,4.6,0,16,0,0,120.0,8.0,79.0,1.4,8.7,15.8,1,1
357,San Quirico De Tarrasa,Catalonia,Spain,41.533,2.083,2026-07-13 10:15,28.2,82.8,1,5.4,8.6,100,E,1014.0,29.94,0.0,0.0,45,0,27.8,82.0,29.5,85.0,29.1,84.4,13.2,55.8,10.0,6.0,2.9,6.2,9.9,0,1,0,0,134.0,9.9,76.0,1.2,10.4,20.9,1,1
358,Vilanova I La Geltru,Catalonia,Spain,41.233,1.733,2026-07-13 10:00,27.2,81.0,1,9.4,15.1,83,E,1013.0,29.91,0.0,0.0,84,50,28.0,82.4,28.6,83.4,29.8,85.6,18.0,64.4,10.0,6.0,2.9,10.8,17.4,0,3,0,0,134.0,10.8,80.0,1.2,11.6,17.1,1,1
359,San Martin De La Vega,Madrid,Spain,40.217,-3.567,2026-07-13 10:15,25.2,77.4,1,8.1,13.0,227,SW,1017.0,30.03,0.0,0.0,36,0,25.2,77.4,23.6,74.6,24.4,75.8,7.5,45.4,10.0,6.0,2.4,9.3,14.9,0,1,0,0,141.0,21.1,50.0,1.4,6.7,9.9,1,1
360,San Lorenzo De El Escorial,Madrid,Spain,40.583,-4.15,2026-07-13 10:00,18.5,65.4,1,6.0,9.7,185,S,1016.0,30.0,0.0,0.0,32,4,12.6,54.7,18.5,65.4,18.5,65.4,1.5,34.7,10.0,6.0,2.3,9.1,14.6,0,1,0,0,104.0,1.6,70.0,0.1,3.3,4.7,1,1
361,Vilassar De Mar,Catalonia,Spain,41.5,2.4,2026-07-13 10:00,27.0,80.5,1,10.3,16.6,72,ENE,1014.0,29.94,0.0,0.0,63,5,28.0,82.4,27.0,80.5,28.5,83.4,19.3,66.8,10.0,6.0,2.9,13.0,20.9,0,4,0,0,113.0,3.3,83.0,0.3,9.8,17.8,1,1
362,La Gabarra,Catalonia,Spain,41.367,2.067,2026-07-13 10:15,27.4,81.3,1,10.3,16.6,72,ENE,1013.0,29.91,0.0,0.0,84,50,28.8,83.8,27.5,81.5,28.9,84.1,18.8,65.8,10.0,6.0,2.9,12.1,19.4,0,3,0,0,136.0,17.0,84.0,1.7,11.0,21.1,1,1
363,Padrinan,Galicia,Spain,42.4,-8.8,2026-07-13 10:15,19.9,67.9,1,3.6,5.8,166,SSE,1015.0,29.98,0.0,0.0,67,18,14.8,58.6,19.9,67.9,19.9,67.9,13.6,56.4,10.0,6.0,1.6,4.1,6.6,0,6,0,0,99.0,4.3,56.0,0.5,5.2,9.6,1,1
364,Caserio La Canada,Madrid,Spain,40.417,-3.533,2026-07-13 10:15,26.0,78.8,1,7.6,12.2,216,SW,1016.0,30.0,0.0,0.0,34,0,25.5,77.9,24.9,76.8,24.7,76.5,6.8,44.2,10.0,6.0,2.4,8.7,14.1,0,1,0,0,144.0,32.2,42.0,2.9,7.2,12.0,1,1
365,Sant Just Desvern,Catalonia,Spain,41.383,2.083,2026-07-13 10:00,27.2,81.0,1,10.3,16.6,72,ENE,1013.0,29.91,0.0,0.0,84,50,28.5,83.4,27.5,81.5,28.9,84.1,18.8,65.8,10.0,6.0,2.9,12.1,19.4,0,3,0,0,136.0,17.0,84.0,1.7,11.0,21.1,1,1
366,Sant Feliu De Guixols,Catalonia,Spain,41.783,3.033,2026-07-13 10:00,27.4,81.4,1,6.7,10.8,75,ENE,1014.0,29.96,0.0,0.0,66,7,29.2,84.6,27.4,81.4,29.5,85.2,20.6,69.1,10.0,6.0,2.8,7.7,12.4,0,5,0,0,114.0,1.7,86.0,0.3,9.4,15.9,1,1
367,Sant Cugat Del Valles,Catalonia,Spain,41.467,2.083,2026-07-13 10:15,28.2,82.8,1,5.4,8.6,100,E,1014.0,29.94,0.0,0.0,45,0,27.8,82.0,29.5,85.0,29.1,84.4,13.2,55.8,10.0,6.0,2.9,6.2,9.9,0,1,0,0,134.0,9.9,76.0,1.2,10.4,20.9,1,1
368,San Celoni,Catalonia,Spain,41.683,2.483,2026-07-13 10:00,29.1,84.3,1,4.7,7.6,90,E,1015.0,29.97,0.0,0.0,32,5,23.6,74.5,29.1,84.3,28.2,82.7,10.7,51.2,10.0,6.0,3.0,5.4,8.7,0,1,0,0,109.0,1.6,85.0,0.3,8.3,19.6,1,1
369,San Carlos De La Rapita,Catalonia,Spain,40.617,0.6,2026-07-13 10:15,26.2,79.1,1,6.7,10.8,88,E,1014.0,29.95,0.01,0.0,79,80,24.7,76.5,26.2,79.1,28.7,83.7,22.3,72.1,10.0,6.0,1.9,8.3,13.3,0,20,0,0,118.0,4.2,82.0,0.4,11.5,20.4,1,1
370,San Baudilio De Llobregat,Catalonia,Spain,41.35,2.05,2026-07-13 10:00,27.2,81.0,1,10.3,16.6,72,ENE,1013.0,29.91,0.0,0.0,84,50,28.5,83.4,27.5,81.5,28.9,84.1,18.8,65.8,10.0,6.0,2.9,12.1,19.4,0,3,0,0,136.0,17.0,84.0,1.7,11.0,21.1,1,1
371,San Andres De Palomar,Catalonia,Spain,41.433,2.2,2026-07-13 10:15,27.4,81.3,1,8.5,13.7,81,E,1013.0,29.91,0.0,0.0,84,50,28.6,83.4,28.0,82.3,29.3,84.8,18.5,65.3,10.0,6.0,2.9,9.8,15.7,0,3,0,0,119.0,5.5,82.0,0.5,10.4,18.2,1,1
372,Villabalter,Castilla y Leon,Spain,42.617,-5.617,2026-07-13 10:00,19.9,67.8,1,5.8,9.4,168,SSE,1015.0,29.99,0.0,0.0,45,7,14.1,57.4,19.9,67.8,19.9,67.8,7.8,46.0,10.0,6.0,2.1,6.7,10.8,0,2,0,0,107.0,2.8,56.0,0.9,4.0,7.6,1,1
373,San Andres De La Barca,Catalonia,Spain,41.433,1.967,2026-07-13 10:00,27.2,81.0,1,10.3,16.6,72,ENE,1013.0,29.91,0.0,0.0,84,50,28.5,83.4,27.5,81.5,28.9,84.1,18.8,65.8,10.0,6.0,2.9,12.1,19.4,0,3,0,0,136.0,17.0,84.0,1.7,11.0,21.1,1,1
374,San Andres De Palomar,Catalonia,Spain,41.433,2.2,2026-07-13 10:15,27.4,81.3,1,8.5,13.7,81,E,1013.0,29.91,0.0,0.0,84,50,28.6,83.4,28.0,82.3,29.3,84.8,18.5,65.3,10.0,6.0,2.9,9.8,15.7,0,3,0,0,119.0,5.5,82.0,0.5,10.4,18.2,1,1
375,Langreo,Asturias,Spain,43.3,-5.683,2026-07-13 10:15,22.2,72.0,1,2.2,3.6,30,NNE,1014.0,29.94,0.0,0.0,73,0,24.6,76.4,21.2,70.2,24.5,76.0,14.1,57.5,10.0,6.0,2.0,2.3,3.7,0,4,0,0,133.0,3.8,62.0,0.5,8.6,10.4,1,1
376,Santa Eugenia De Ter,Catalonia,Spain,41.983,2.8,2026-07-13 10:15,24.4,75.9,1,3.8,6.1,70,ENE,1015.0,29.97,0.0,0.0,44,0,25.2,77.3,29.1,84.3,29.4,84.9,15.5,60.0,10.0,6.0,2.9,4.4,7.1,0,1,0,0,122.0,6.9,83.0,0.8,9.6,18.2,1,1
377,Salou,Catalonia,Spain,41.067,1.133,2026-07-13 10:00,28.1,82.6,1,5.4,8.6,129,SE,1013.0,29.91,0.0,0.0,45,0,30.9,87.5,26.7,80.1,28.7,83.6,20.4,68.7,10.0,6.0,2.8,6.2,9.9,0,6,0,0,126.0,7.8,84.0,1.9,10.5,19.4,1,1
378,Salamanca,Castilla y Leon,Spain,40.967,-5.65,2026-07-13 10:15,18.4,65.1,1,8.3,13.3,202,SSW,1017.0,30.03,0.0,0.0,64,0,18.4,65.1,21.5,70.7,23.8,74.9,7.0,44.5,10.0,6.0,2.0,9.5,15.3,0,1,0,0,109.0,2.7,60.0,0.3,3.9,7.0,1,1
379,San Quirico De Tarrasa,Catalonia,Spain,41.533,2.083,2026-07-13 10:15,28.2,82.8,1,5.4,8.6,100,E,1014.0,29.94,0.0,0.0,45,0,27.8,82.0,29.5,85.0,29.1,84.4,13.2,55.8,10.0,6.0,2.9,6.2,9.9,0,1,0,0,134.0,9.9,76.0,1.2,10.4,20.9,1,1
380,Rubi,Catalonia,Spain,41.483,2.033,2026-07-13 10:15,28.2,82.8,1,4.7,7.6,104,ESE,1014.0,29.94,0.0,0.0,45,0,27.3,81.2,29.6,85.3,28.7,83.7,11.1,52.1,10.0,6.0,2.9,5.4,8.7,0,1,0,0,135.0,14.3,76.0,1.5,10.5,22.7,1,1
381,Rosas,Catalonia,Spain,42.267,3.183,2026-07-13 10:15,25.1,77.2,1,3.6,5.8,79,E,1014.0,29.94,0.0,0.0,83,75,26.5,79.8,25.9,78.6,27.4,81.3,19.1,66.4,10.0,6.0,2.8,4.8,7.7,0,5,0,0,113.0,1.6,90.0,0.2,8.8,16.5,1,1
382,Cerdanola,Catalonia,Spain,41.483,2.133,2026-07-13 10:15,28.2,82.8,1,5.4,8.6,100,E,1014.0,29.94,0.0,0.0,45,0,27.8,82.1,29.4,85.0,29.1,84.4,13.4,56.1,10.0,6.0,2.9,6.2,9.9,0,1,0,0,134.0,9.9,76.0,1.2,10.4,20.9,1,1
383,Barbud,Galicia,Spain,42.733,-8.45,2026-07-13 10:15,18.3,64.9,1,3.6,5.8,204,SSW,1015.0,29.97,0.0,0.0,73,0,18.3,64.9,18.6,65.4,18.6,65.4,11.7,53.1,10.0,6.0,1.7,4.1,6.6,0,4,0,0,97.0,2.6,65.0,0.6,4.9,9.4,1,1
384,Reus,Catalonia,Spain,41.15,1.117,2026-07-13 10:15,28.1,82.6,1,5.4,8.6,144,SE,1013.0,29.91,0.0,0.0,45,0,29.8,85.6,27.5,81.5,28.9,84.1,18.8,65.8,10.0,6.0,2.8,6.2,9.9,0,4,0,0,127.0,9.8,76.0,4.4,10.7,20.3,1,1
385,Lezo,Pais Vasco,Spain,43.317,-1.9,2026-07-13 10:00,24.1,75.4,1,2.5,4.0,56,ENE,1015.0,29.97,0.0,0.0,74,100,26.1,79.0,21.8,71.3,24.4,76.0,18.7,65.6,10.0,6.0,2.2,2.8,4.6,0,16,0,0,120.0,8.0,79.0,1.4,8.7,15.8,1,1
386,Cedeira,Galicia,Spain,42.283,-8.617,2026-07-13 10:00,18.8,65.8,1,4.9,7.9,141,SE,1015.0,29.98,0.0,0.0,72,15,13.2,55.8,18.8,65.8,18.8,65.8,13.7,56.6,10.0,6.0,1.6,6.3,10.2,0,7,0,0,101.0,6.2,52.0,0.8,6.5,10.6,1,1
387,Puente De Vallecas,Madrid,Spain,40.4,-3.65,2026-07-13 10:15,26.0,78.8,1,7.4,11.9,221,SW,1016.0,30.0,0.0,0.0,34,0,25.6,78.0,24.0,75.2,24.4,75.8,6.7,44.0,10.0,6.0,2.4,8.5,13.7,0,1,0,0,135.0,21.2,48.0,1.6,7.1,10.4,1,1
388,Angoares,Galicia,Spain,42.167,-8.5,2026-07-13 10:00,18.8,65.8,1,4.9,7.9,141,SE,1015.0,29.98,0.0,0.0,72,15,13.2,55.8,18.8,65.8,18.8,65.8,13.7,56.6,10.0,6.0,1.6,6.3,10.2,0,7,0,0,101.0,6.2,52.0,0.8,6.5,10.6,1,1
389,Premia De Mar,Catalonia,Spain,41.483,2.367,2026-07-13 10:00,27.0,80.5,1,10.3,16.6,72,ENE,1014.0,29.94,0.0,0.0,63,5,28.0,82.4,27.0,80.5,28.5,83.4,19.3,66.8,10.0,6.0,2.9,13.0,20.9,0,4,0,0,113.0,3.3,83.0,0.3,9.8,17.8,1,1
390,Pozuelo De Alarcon,Madrid,Spain,40.433,-3.817,2026-07-13 10:00,23.0,73.4,1,7.4,11.9,222,SW,1017.0,30.03,0.0,0.0,38,0,23.9,75.1,23.8,74.8,24.3,75.7,6.8,44.3,10.0,6.0,2.4,8.5,13.7,0,1,0,0,141.0,21.1,50.0,1.4,6.7,9.9,1,1
391,Aris,Galicia,Spain,42.45,-8.683,2026-07-13 10:15,19.9,67.9,1,3.6,5.8,166,SSE,1015.0,29.98,0.0,0.0,67,18,14.8,58.6,19.9,67.9,19.9,67.9,13.6,56.4,10.0,6.0,1.6,4.1,6.6,0,6,0,0,99.0,4.3,56.0,0.5,5.2,9.6,1,1
392,Portugalete,Pais Vasco,Spain,43.317,-3.017,2026-07-13 10:15,25.0,77.0,1,2.2,3.6,10,N,1015.0,29.97,0.0,0.0,65,25,26.6,79.8,22.9,73.3,25.0,76.9,16.9,62.5,10.0,6.0,2.2,6.7,10.8,0,5,0,0,160.0,26.6,55.0,12.8,11.3,16.4,1,1
393,Porrino,Galicia,Spain,42.167,-8.617,2026-07-13 10:15,18.8,65.8,1,4.9,7.9,141,SE,1015.0,29.98,0.0,0.0,72,15,13.2,55.8,18.8,65.8,18.8,65.8,13.7,56.6,10.0,6.0,1.6,6.3,10.2,0,7,0,0,101.0,6.2,52.0,0.8,6.5,10.6,1,1
394,Pontevedra,Galicia,Spain,42.433,-8.633,2026-07-13 10:00,19.9,67.9,1,3.6,5.8,166,SSE,1015.0,29.98,0.0,0.0,67,18,14.8,58.6,19.9,67.9,19.9,67.9,13.6,56.4,10.0,6.0,1.6,4.1,6.6,0,6,0,0,99.0,4.3,56.0,0.5,5.2,9.6,1,1
395,Ponferrada,Castilla y Leon,Spain,42.55,-6.583,2026-07-13 10:15,12.5,54.5,0,2.2,3.6,228,SW,1015.0,29.97,0.0,0.0,67,9,8.0,46.4,12.5,54.5,12.5,54.5,6.5,43.6,10.0,6.0,0.0,3.3,5.3,0,5,0,0,102.0,1.7,51.0,0.2,4.2,5.9,1,1
396,Plasencia,Extremadura,Spain,40.033,-6.083,2026-07-13 10:15,21.5,70.7,1,4.0,6.5,255,WSW,1016.0,30.01,0.0,0.0,55,94,16.2,61.2,21.5,70.7,24.4,76.0,12.0,53.6,10.0,6.0,1.9,4.6,7.5,0,12,0,0,101.0,2.4,48.0,0.3,4.3,6.9,1,1
397,Pinto,Madrid,Spain,40.233,-3.683,2026-07-13 10:15,25.2,77.4,1,8.3,13.3,231,SW,1017.0,30.03,0.0,0.0,36,0,25.3,77.6,23.1,73.5,24.2,75.6,7.7,45.9,10.0,6.0,2.4,9.5,15.3,0,1,0,0,130.0,14.7,54.0,0.8,6.2,9.3,1,1
398,Pineda,Catalonia,Spain,41.617,2.7,2026-07-13 10:15,27.8,82.0,1,8.3,13.3,67,ENE,1014.0,29.95,0.0,0.0,63,6,29.5,85.1,27.8,82.0,29.7,85.5,20.2,68.3,10.0,6.0,2.9,9.5,15.3,0,4,0,0,117.0,3.6,81.0,0.3,9.5,16.3,1,1
399,El Hostalets,Catalonia,Spain,41.533,1.767,2026-07-13 10:15,28.2,82.8,1,4.7,7.6,104,ESE,1014.0,29.94,0.0,0.0,45,0,27.3,81.2,29.6,85.3,28.7,83.7,11.1,52.1,10.0,6.0,2.9,5.4,8.7,0,1,0,0,135.0,14.3,76.0,1.5,10.5,22.7,1,1
400,Casas De La Prosperidad,Madrid,Spain,40.45,-3.667,2026-07-13 10:15,23.0,73.4,1,7.4,11.9,218,SW,1017.0,30.03,0.0,0.0,38,0,23.8,74.8,24.3,75.7,24.4,75.9,6.3,43.4,10.0,6.0,2.4,8.5,13.7,0,1,0,0,135.0,21.2,48.0,1.6,7.1,10.4,1,1
401,Barrio Pavones,Madrid,Spain,40.4,-3.617,2026-07-13 10:15,26.0,78.8,1,7.4,11.9,221,SW,1016.0,30.0,0.0,0.0,34,0,25.6,78.0,24.0,75.2,24.4,75.8,6.7,44.0,10.0,6.0,2.4,8.5,13.7,0,1,0,0,135.0,21.2,48.0,1.6,7.1,10.4,1,1
402,Parla,Madrid,Spain,40.233,-3.767,2026-07-13 10:15,25.2,77.4,1,8.3,13.3,231,SW,1017.0,30.03,0.0,0.0,36,0,25.3,77.6,23.1,73.5,24.2,75.6,7.7,45.9,10.0,6.0,2.4,9.5,15.3,0,1,0,0,130.0,14.7,54.0,0.8,6.2,9.3,1,1
403,Parets,Catalonia,Spain,41.583,2.233,2026-07-13 10:15,24.4,75.9,1,6.3,10.1,95,E,1015.0,29.97,0.0,0.0,44,0,25.1,77.1,29.6,85.3,29.8,85.7,15.1,59.3,10.0,6.0,2.9,7.2,11.6,0,1,0,0,118.0,4.1,83.0,0.6,9.3,21.8,1,1
404,San Juan,Navarra,Spain,42.817,-1.65,2026-07-13 10:00,24.2,75.6,1,2.2,3.6,72,ENE,1016.0,30.0,0.0,0.0,65,25,25.6,78.2,23.0,73.3,24.9,76.8,15.2,59.4,10.0,6.0,2.0,6.7,10.8,0,4,0,0,120.0,5.7,69.0,1.0,10.6,25.2,1,1
405,Palencia,Castilla y Leon,Spain,42.017,-4.533,2026-07-13 10:00,22.1,71.7,1,4.5,7.2,172,S,1015.0,29.98,0.0,0.0,36,6,16.7,62.1,22.1,71.7,23.8,74.8,6.3,43.4,10.0,6.0,2.1,5.1,8.3,0,1,0,0,110.0,3.3,59.0,0.4,4.3,7.7,1,1
406,Palamos,Catalonia,Spain,41.85,3.133,2026-07-13 10:00,26.3,79.3,1,6.0,9.7,83,E,1015.0,29.96,0.0,0.0,73,10,25.1,77.2,26.3,79.3,28.4,83.1,21.1,69.9,10.0,6.0,2.8,7.8,12.6,0,7,0,0,113.0,2.3,89.0,0.3,9.6,16.6,1,1
407,Palafrugell,Catalonia,Spain,41.917,3.167,2026-07-13 10:00,26.3,79.3,1,6.0,9.7,83,E,1015.0,29.96,0.0,0.0,73,10,25.1,77.2,26.3,79.3,28.4,83.1,21.1,69.9,10.0,6.0,2.8,7.8,12.6,0,7,0,0,113.0,2.3,89.0,0.3,9.6,16.6,1,1
408,Arcos,Asturias,Spain,43.367,-5.85,2026-07-13 10:15,22.1,71.8,1,2.2,3.6,43,NE,1014.0,29.94,0.0,0.0,73,0,24.6,76.3,20.6,69.1,20.6,69.1,15.1,59.1,10.0,6.0,2.0,6.7,10.8,0,6,0,0,157.0,6.5,62.0,2.6,9.7,11.2,1,1
409,Oria,Pais Vasco,Spain,43.25,-2.017,2026-07-13 10:15,24.0,75.2,1,2.5,4.0,59,ENE,1015.0,29.97,0.0,0.0,74,100,26.0,78.8,21.6,70.9,24.4,75.9,18.4,65.1,10.0,6.0,2.2,2.8,4.6,0,15,0,0,115.0,2.6,84.0,1.1,8.2,14.8,1,1
410,Oranse,Galicia,Spain,42.333,-7.85,2026-07-13 10:00,20.4,68.8,1,3.1,5.0,188,S,1015.0,29.98,0.0,0.0,62,10,15.5,59.9,20.4,68.8,20.4,68.8,12.9,55.2,10.0,6.0,1.8,3.6,5.8,0,4,0,0,93.0,4.2,45.0,0.7,5.2,8.2,1,1
411,Olot,Catalonia,Spain,42.183,2.483,2026-07-13 10:15,24.4,75.9,1,3.8,6.1,70,ENE,1015.0,29.97,0.0,0.0,44,0,25.2,77.3,29.1,84.3,29.4,84.9,15.5,60.0,10.0,6.0,2.9,4.4,7.1,0,1,0,0,122.0,6.9,83.0,0.8,9.6,18.2,1,1
412,Olesa De Montserrat,Catalonia,Spain,41.55,1.9,2026-07-13 10:15,28.2,82.8,1,4.7,7.6,104,ESE,1014.0,29.94,0.0,0.0,45,0,27.3,81.2,29.6,85.3,28.7,83.7,11.1,52.1,10.0,6.0,2.9,5.4,8.7,0,1,0,0,135.0,14.3,76.0,1.5,10.5,22.7,1,1
413,Oleiros,Galicia,Spain,43.333,-8.317,2026-07-13 10:15,18.9,66.0,1,5.1,8.3,171,S,1015.0,29.96,0.0,0.0,69,26,13.3,55.9,18.9,66.0,18.9,66.0,13.1,55.6,10.0,6.0,1.6,6.9,11.1,0,7,0,0,97.0,4.9,64.0,0.6,4.6,8.5,1,1
414,Nigran,Galicia,Spain,42.133,-8.783,2026-07-13 10:15,18.8,65.8,1,4.9,7.9,141,SE,1015.0,29.98,0.0,0.0,72,15,13.2,55.8,18.8,65.8,18.8,65.8,13.7,56.6,10.0,6.0,1.6,6.3,10.2,0,7,0,0,101.0,6.2,52.0,0.8,6.5,10.6,1,1
415,Navalcarnero,Madrid,Spain,40.3,-4.0,2026-07-13 10:15,25.2,77.4,1,7.6,12.2,225,SW,1017.0,30.03,0.0,0.0,36,0,25.2,77.4,23.2,73.7,24.1,75.5,7.1,44.8,10.0,6.0,2.4,8.7,14.1,0,1,0,0,125.0,11.1,57.0,0.6,5.6,9.3,1,1
416,San Martin De Jubia,Galicia,Spain,43.5,-8.183,2026-07-13 10:15,18.9,66.0,1,5.1,8.3,171,S,1015.0,29.96,0.0,0.0,69,26,13.3,55.9,18.9,66.0,18.9,66.0,13.1,55.6,10.0,6.0,1.6,6.9,11.1,0,7,0,0,97.0,4.9,64.0,0.6,4.6,8.5,1,1
417,Iturribalzaga,Pais Vasco,Spain,43.35,-2.833,2026-07-13 10:15,25.0,77.0,1,2.2,3.6,27,NNE,1015.0,29.97,0.0,0.0,65,25,26.5,79.8,23.7,74.6,25.4,77.7,17.5,63.6,10.0,6.0,2.2,6.7,10.8,0,5,0,0,158.0,21.5,54.0,6.3,10.8,19.8,1,1
418,Mostoles,Madrid,Spain,40.317,-3.85,2026-07-13 10:15,25.2,77.4,1,7.6,12.2,225,SW,1017.0,30.03,0.0,0.0,36,0,25.2,77.4,23.2,73.7,24.1,75.5,7.1,44.8,10.0,6.0,2.4,8.7,14.1,0,1,0,0,125.0,11.1,57.0,0.6,5.6,9.3,1,1
419,Puente De Vallecas,Madrid,Spain,40.4,-3.65,2026-07-13 10:15,26.0,78.8,1,7.4,11.9,221,SW,1016.0,30.0,0.0,0.0,34,0,25.6,78.0,24.0,75.2,24.4,75.8,6.7,44.0,10.0,6.0,2.4,8.5,13.7,0,1,0,0,135.0,21.2,48.0,1.6,7.1,10.4,1,1
420,Monzon,Aragon,Spain,41.917,0.2,2026-07-13 10:00,28.3,82.9,1,7.4,11.9,105,ESE,1014.0,29.94,0.0,0.0,43,8,28.1,82.6,28.3,82.9,28.4,83.1,14.4,58.0,10.0,6.0,2.7,8.5,13.7,0,1,0,0,113.0,1.8,85.0,0.6,9.8,21.7,1,1
421,Montornes Del Valles,Catalonia,Spain,41.533,2.267,2026-07-13 10:15,24.4,75.9,1,6.3,10.1,95,E,1015.0,29.97,0.0,0.0,44,0,25.1,77.1,29.6,85.3,29.8,85.7,15.1,59.3,10.0,6.0,2.9,7.2,11.6,0,1,0,0,118.0,4.1,83.0,0.6,9.3,21.8,1,1
422,Monforte De Lemos,Galicia,Spain,42.517,-7.5,2026-07-13 10:15,18.4,65.1,1,2.5,4.0,190,S,1015.0,29.98,0.0,0.0,54,11,13.6,56.5,18.4,65.1,18.4,65.1,8.9,48.0,10.0,6.0,1.9,2.9,4.6,0,3,0,0,93.0,0.5,59.0,0.1,3.5,6.7,1,1
423,Mondragon,Pais Vasco,Spain,43.067,-2.483,2026-07-13 10:00,20.1,68.2,1,2.2,3.6,232,SW,1017.0,30.03,0.0,0.0,88,75,20.1,68.2,22.0,71.5,24.6,76.2,14.6,58.4,6.0,3.0,2.1,6.7,10.8,0,4,0,0,137.0,9.5,67.0,0.7,11.3,18.2,1,1
424,Moncada De Reixach,Catalonia,Spain,41.483,2.183,2026-07-13 10:15,27.4,81.3,1,8.5,13.7,81,E,1013.0,29.91,0.0,0.0,84,50,28.6,83.4,28.0,82.3,29.3,84.8,18.5,65.3,10.0,6.0,2.9,9.8,15.7,0,3,0,0,119.0,5.5,82.0,0.5,10.4,18.2,1,1
425,Mollet Del Valles,Catalonia,Spain,41.55,2.217,2026-07-13 10:15,28.2,82.8,1,5.4,8.6,100,E,1014.0,29.94,0.0,0.0,45,0,27.8,82.1,29.4,85.0,29.1,84.4,13.4,56.1,10.0,6.0,2.9,6.2,9.9,0,1,0,0,134.0,9.9,76.0,1.2,10.4,20.9,1,1
426,Molins Del Rey,Catalonia,Spain,41.417,2.017,2026-07-13 10:00,27.2,81.0,1,10.3,16.6,72,ENE,1013.0,29.91,0.0,0.0,84,50,28.5,83.4,27.5,81.5,28.9,84.1,18.8,65.8,10.0,6.0,2.9,12.1,19.4,0,3,0,0,136.0,17.0,84.0,1.7,11.0,21.1,1,1
427,Moana,Galicia,Spain,42.283,-8.75,2026-07-13 10:00,18.8,65.8,1,4.9,7.9,141,SE,1015.0,29.98,0.0,0.0,72,15,13.2,55.8,18.8,65.8,18.8,65.8,13.7,56.6,10.0,6.0,1.6,6.3,10.2,0,7,0,0,101.0,6.2,52.0,0.8,6.5,10.6,1,1
428,Miranda De Ebro,Castilla y Leon,Spain,42.683,-2.95,2026-07-13 10:15,20.1,68.2,1,2.2,3.6,293,WNW,1017.0,30.03,0.0,0.0,88,75,20.1,68.2,22.4,72.4,24.6,76.2,12.0,53.5,6.0,3.0,2.2,6.7,10.8,0,2,0,0,117.0,4.3,68.0,0.9,9.4,13.8,1,1
429,Mieres,Asturias,Spain,43.25,-5.767,2026-07-13 10:15,22.2,72.0,1,2.2,3.6,30,NNE,1014.0,29.94,0.0,0.0,73,0,24.6,76.4,21.2,70.2,24.5,76.0,14.1,57.5,10.0,6.0,2.0,2.3,3.7,0,4,0,0,133.0,3.8,62.0,0.5,8.6,10.4,1,1
430,Mejorada Del Campo,Madrid,Spain,40.4,-3.483,2026-07-13 10:15,26.0,78.8,1,7.6,12.2,216,SW,1016.0,30.0,0.0,0.0,34,0,25.5,77.9,24.9,76.8,24.7,76.5,6.8,44.3,10.0,6.0,2.4,8.7,14.1,0,1,0,0,137.0,24.8,41.0,2.7,6.6,11.6,1,1
431,Medina Del Campo,Castilla y Leon,Spain,41.3,-4.917,2026-07-13 10:15,21.5,70.6,1,3.6,5.8,206,SSW,1015.0,29.99,0.0,0.0,39,7,16.3,61.3,21.5,70.6,23.9,74.9,7.0,44.7,10.0,6.0,2.0,4.1,6.6,0,1,0,0,105.0,1.5,59.0,0.3,3.5,7.2,1,1
432,Mataro,Catalonia,Spain,41.533,2.45,2026-07-13 10:00,27.0,80.5,1,10.3,16.6,72,ENE,1014.0,29.94,0.0,0.0,63,5,28.0,82.4,27.0,80.5,28.5,83.4,19.3,66.8,10.0,6.0,2.9,13.0,20.9,0,4,0,0,113.0,3.3,83.0,0.3,9.8,17.8,1,1
433,Masnou,Catalonia,Spain,41.483,2.317,2026-07-13 10:15,27.4,81.3,1,8.5,13.7,81,E,1013.0,29.91,0.0,0.0,84,50,28.6,83.4,28.0,82.3,29.3,84.8,18.5,65.3,10.0,6.0,2.9,9.8,15.7,0,3,0,0,119.0,5.5,82.0,0.5,10.4,18.2,1,1
434,San Andres De La Barca,Catalonia,Spain,41.433,1.967,2026-07-13 10:00,27.2,81.0,1,10.3,16.6,72,ENE,1013.0,29.91,0.0,0.0,84,50,28.5,83.4,27.5,81.5,28.9,84.1,18.8,65.8,10.0,6.0,2.9,12.1,19.4,0,3,0,0,136.0,17.0,84.0,1.7,11.0,21.1,1,1
435,Estribela,Galicia,Spain,42.4,-8.7,2026-07-13 10:15,19.9,67.9,1,3.6,5.8,166,SSE,1015.0,29.98,0.0,0.0,67,18,14.8,58.6,19.9,67.9,19.9,67.9,13.6,56.4,10.0,6.0,1.6,4.1,6.6,0,6,0,0,99.0,4.3,56.0,0.5,5.2,9.6,1,1
436,Manresa,Catalonia,Spain,41.733,1.833,2026-07-13 10:15,28.2,82.8,1,3.8,6.1,94,E,1014.0,29.94,0.0,0.0,45,0,26.8,80.3,30.9,87.7,29.5,85.1,9.5,49.2,10.0,6.0,2.9,4.4,7.1,0,8,0,0,115.0,3.3,75.0,0.5,10.1,21.0,1,1
437,Manlleu,Catalonia,Spain,42.0,2.283,2026-07-13 10:00,29.1,84.3,1,4.7,7.6,90,E,1015.0,29.97,0.0,0.0,32,5,23.6,74.5,29.1,84.3,28.2,82.7,10.7,51.2,10.0,6.0,3.0,5.4,8.7,0,1,0,0,109.0,1.6,85.0,0.3,8.3,19.6,1,1
438,Malgrat De Mar,Catalonia,Spain,41.65,2.75,2026-07-13 10:15,27.7,81.9,1,7.8,12.6,67,ENE,1014.0,29.95,0.0,0.0,63,6,29.4,84.9,27.7,81.9,29.7,85.4,20.1,68.2,10.0,6.0,2.9,9.0,14.5,0,4,0,0,117.0,3.3,87.0,0.3,9.8,16.6,1,1
439,Majadahonda,Madrid,Spain,40.467,-3.867,2026-07-13 10:15,23.4,74.1,1,6.5,10.4,212,SSW,1017.0,30.03,0.0,0.0,38,0,24.0,75.2,23.8,74.8,24.2,75.5,6.1,43.1,10.0,6.0,2.3,7.5,12.0,0,1,0,0,114.0,7.7,61.0,0.5,5.0,8.0,1,1
440,Madrid,Madrid,Spain,40.4,-3.683,2026-07-13 10:15,25.2,77.4,1,7.4,11.9,221,SW,1017.0,30.03,0.0,0.0,36,0,25.0,77.1,24.4,75.8,24.5,76.2,7.0,44.5,10.0,6.0,2.4,8.5,13.7,0,1,0,0,135.0,21.2,48.0,1.6,7.1,10.4,1,1
441,Lugo,Galicia,Spain,43.0,-7.567,2026-07-13 10:00,17.2,62.9,1,2.2,3.6,192,SSW,1015.0,29.98,0.0,0.0,81,32,12.5,54.5,17.2,62.9,17.2,62.9,14.0,57.1,10.0,6.0,1.8,2.3,3.7,0,13,0,0,95.0,1.8,46.0,0.2,4.6,7.4,1,1
442,Logrono,La Rioja,Spain,42.467,-2.45,2026-07-13 10:00,23.2,73.8,1,3.6,5.8,296,WNW,1016.0,30.0,0.0,0.0,61,0,24.8,76.7,23.1,73.5,24.8,76.6,12.2,53.9,10.0,6.0,2.0,4.1,6.6,0,2,0,0,140.0,5.2,62.0,0.8,10.9,15.7,1,1
443,Lloret De Mar,Catalonia,Spain,41.7,2.85,2026-07-13 10:15,27.9,82.1,1,6.5,10.4,72,ENE,1014.0,29.95,0.0,0.0,63,7,29.6,85.3,27.9,82.1,29.8,85.7,20.1,68.3,10.0,6.0,2.9,7.5,12.0,0,4,0,0,116.0,2.0,90.0,0.3,9.3,14.9,1,1
444,Llodio,Pais Vasco,Spain,43.15,-2.967,2026-07-13 10:00,23.2,73.8,1,2.5,4.0,45,NE,1015.0,29.98,0.0,0.0,64,4,18.5,65.3,23.2,73.8,25.1,77.1,16.0,60.8,10.0,6.0,2.2,2.8,4.6,0,4,0,0,186.0,27.8,49.0,3.8,15.2,20.6,1,2
445,Lerida,Catalonia,Spain,41.617,0.617,2026-07-13 10:15,29.4,85.0,1,3.8,6.1,140,SE,1014.0,29.93,0.0,0.0,42,3,29.2,84.6,29.4,85.0,29.6,85.3,15.0,59.0,10.0,6.0,2.8,4.4,7.1,0,1,0,0,122.0,4.2,83.0,0.7,13.0,25.0,1,2
446,Leon,Castilla y Leon,Spain,42.6,-5.567,2026-07-13 10:00,19.9,67.8,1,5.8,9.4,168,SSE,1015.0,29.99,0.0,0.0,45,7,14.1,57.4,19.9,67.8,19.9,67.8,7.8,46.0,10.0,6.0,2.1,6.7,10.8,0,2,0,0,107.0,2.8,56.0,0.9,4.0,7.6,1,1
447,Astrabudua,Pais Vasco,Spain,43.317,-2.983,2026-07-13 10:15,25.0,77.0,1,2.2,3.6,27,NNE,1015.0,29.97,0.0,0.0,65,25,26.5,79.8,23.7,74.6,25.4,77.7,17.5,63.6,10.0,6.0,2.2,6.7,10.8,0,5,0,0,158.0,21.5,54.0,6.3,10.8,19.8,1,1
448,Leganes,Madrid,Spain,40.317,-3.75,2026-07-13 10:00,25.4,77.7,1,7.8,12.6,226,SW,1017.0,30.03,0.0,0.0,36,0,25.3,77.6,23.6,74.5,24.3,75.8,7.3,45.1,10.0,6.0,2.4,9.0,14.5,0,1,0,0,141.0,21.1,50.0,1.4,6.7,9.9,1,1
449,Las Rozas De Madrid,Madrid,Spain,40.483,-3.867,2026-07-13 10:15,23.4,74.1,1,6.5,10.4,212,SSW,1017.0,30.03,0.0,0.0,38,0,24.0,75.2,23.8,74.8,24.2,75.5,6.1,43.1,10.0,6.0,2.3,7.5,12.0,0,1,0,0,114.0,7.7,61.0,0.5,5.0,8.0,1,1
450,Calezarra,Pais Vasco,Spain,43.267,-2.033,2026-07-13 10:15,24.0,75.2,1,2.5,4.0,59,ENE,1015.0,29.97,0.0,0.0,74,100,26.0,78.8,21.6,70.9,24.4,75.9,18.4,65.1,10.0,6.0,2.2,2.8,4.6,0,15,0,0,115.0,2.6,84.0,1.1,8.2,14.8,1,1
451,Clot,Catalonia,Spain,41.417,2.183,2026-07-13 10:15,27.4,81.3,1,10.5,16.9,72,ENE,1013.0,29.91,0.0,0.0,84,50,29.1,84.4,27.5,81.6,29.3,84.7,19.7,67.4,10.0,6.0,2.9,12.1,19.5,0,4,0,0,130.0,15.4,85.0,1.2,11.3,19.1,1,1
452,Barcelona,Catalonia,Spain,41.383,2.183,2026-07-13 10:15,27.4,81.3,1,10.5,16.9,72,ENE,1013.0,29.91,0.0,0.0,84,50,29.1,84.4,27.5,81.6,29.3,84.7,19.7,67.4,10.0,6.0,2.9,12.1,19.5,0,4,0,0,130.0,15.4,85.0,1.2,11.3,19.1,1,1
453,Ciudad Lineal,Madrid,Spain,40.45,-3.65,2026-07-13 10:15,23.0,73.4,1,7.4,11.9,218,SW,1017.0,30.03,0.0,0.0,38,0,23.8,74.8,24.3,75.7,24.4,75.9,6.3,43.4,10.0,6.0,2.4,8.5,13.7,0,1,0,0,135.0,21.2,48.0,1.6,7.1,10.4,1,1
